[{"NUMTSTTAKR":18,"AVGSCR":1628.0,"School":"FAME Public Charter","Street":"39899 Balentine Drive, Suite 335","City":"Newark","Zip":"94560-5359","State":"CA","Latitude":37.521612,"Longitude":-121.9927},{"NUMTSTTAKR":67,"AVGSCR":1177.0,"School":"Envision Academy for Arts & Technology","Street":"1515 Webster Street","City":"Oakland","Zip":"94612-3355","State":"CA","Latitude":37.804504,"Longitude":-122.26812},{"NUMTSTTAKR":0,"AVGSCR":null,"School":"Aspire California College Preparatory Academy","Street":"2125 Jefferson Avenue","City":"Berkeley","Zip":"94703-1414","State":"CA","Latitude":37.868993,"Longitude":-122.27812},{"NUMTSTTAKR":61,"AVGSCR":1716.0,"School":"Alameda Science and Technology Institute","Street":"555 Atlantic Avenue","City":"Alameda","Zip":"94501-2109","State":"CA","Latitude":37.779857,"Longitude":-122.28053},{"NUMTSTTAKR":15,"AVGSCR":1554.0,"School":"Nea Community Learning Center","Street":"1900 Third St","City":"Alameda","Zip":"94501-1851","State":"CA","Latitude":37.776338,"Longitude":-122.2822},{"NUMTSTTAKR":470,"AVGSCR":1650.0,"School":"Alameda High","Street":"2201 Encinal Avenue","City":"Alameda","Zip":"94501-4406","State":"CA","Latitude":37.764268,"Longitude":-122.24809},{"NUMTSTTAKR":27,"AVGSCR":1765.0,"School":"Alameda Community Learning Center","Street":"1900 Third St","City":"Alameda","Zip":"94501-1851","State":"CA","Latitude":37.773638,"Longitude":-122.29025},{"NUMTSTTAKR":25,"AVGSCR":1003.0,"School":"Alternatives in Action","Street":"6221 E 17th Street","City":"Oakland","Zip":"94621","State":"CA","Latitude":37.778625,"Longitude":-122.28792},{"NUMTSTTAKR":173,"AVGSCR":1521.0,"School":"Encinal High","Street":"210 Central Avenue","City":"Alameda","Zip":"94501-3278","State":"CA","Latitude":37.773638,"Longitude":-122.29025},{"NUMTSTTAKR":2,"AVGSCR":null,"School":"Island High (Continuation)","Street":"1900 Third Street","City":"Alameda","Zip":"94501-1851","State":"CA","Latitude":37.786893,"Longitude":-122.28588},{"NUMTSTTAKR":267,"AVGSCR":1738.0,"School":"Albany High","Street":"603 Key Route Boulevard","City":"Albany","Zip":"94706-1422","State":"CA","Latitude":37.896658,"Longitude":-122.2926},{"NUMTSTTAKR":18,"AVGSCR":1186.0,"School":"REALM Charter High","Street":"2023 Eighth Street","City":"Berkeley","Zip":"94710-2026","State":"CA","Latitude":null,"Longitude":null},{"NUMTSTTAKR":684,"AVGSCR":1701.0,"School":"Berkeley High","Street":"1980 Allston Way","City":"Berkeley","Zip":"94704-1463","State":"CA","Latitude":37.868942,"Longitude":-122.2712},{"NUMTSTTAKR":3,"AVGSCR":null,"School":"Berkeley Technology Academy","Street":"2701 Martin Luther King Junior Way","City":"Berkeley","Zip":"94704-2165","State":"CA","Latitude":37.85974,"Longitude":-122.27171},{"NUMTSTTAKR":661,"AVGSCR":1623.0,"School":"Castro Valley High","Street":"19400 Santa Maria Avenue","City":"Castro Valley","Zip":"94546-3400","State":"CA","Latitude":37.704885,"Longitude":-122.07654},{"NUMTSTTAKR":49,"AVGSCR":1236.0,"School":"Emery Secondary","Street":"915 54th Street","City":"Oakland","Zip":"94608-3142","State":"CA","Latitude":37.835665,"Longitude":-122.28124},{"NUMTSTTAKR":452,"AVGSCR":1751.0,"School":"American High","Street":"36300 Fremont Boulevard","City":"Fremont","Zip":"94536-3511","State":"CA","Latitude":37.56362,"Longitude":-122.01749},{"NUMTSTTAKR":1,"AVGSCR":null,"School":"Robertson High (Continuation)","Street":"4455 Seneca Park Avenue","City":"Fremont","Zip":"94538-4028","State":"CA","Latitude":37.519559,"Longitude":-121.96391},{"NUMTSTTAKR":1,"AVGSCR":null,"School":"Vista Alternative","Street":"4455 Seneca Park Avenue","City":"Fremont","Zip":"94538-4028","State":"CA","Latitude":37.519559,"Longitude":-121.96391},{"NUMTSTTAKR":4,"AVGSCR":null,"School":"Circle of Independent Learning","Street":"4700 Calaveras Avenue","City":"Fremont","Zip":"94538-1124","State":"CA","Latitude":37.537974,"Longitude":-121.9921},{"NUMTSTTAKR":535,"AVGSCR":1804.0,"School":"Irvington High","Street":"41800 Blacow Road","City":"Fremont","Zip":"94538-3353","State":"CA","Latitude":37.522624,"Longitude":-121.96902},{"NUMTSTTAKR":248,"AVGSCR":1513.0,"School":"John F. Kennedy High","Street":"39999 Blacow Road","City":"Fremont","Zip":"94538-1913","State":"CA","Latitude":37.528418,"Longitude":-121.9831},{"NUMTSTTAKR":609,"AVGSCR":1982.0,"School":"Mission San Jose High","Street":"41717 Palm Avenue","City":"Fremont","Zip":"94539-4799","State":"CA","Latitude":37.54502,"Longitude":-121.93191},{"NUMTSTTAKR":343,"AVGSCR":1670.0,"School":"Washington High","Street":"38442 Fremont Boulevard","City":"Fremont","Zip":"94536-6031","State":"CA","Latitude":37.552054,"Longitude":-121.99486},{"NUMTSTTAKR":139,"AVGSCR":1403.0,"School":"Leadership Public Schools - Hayward","Street":"28000 Calaroga Avenue","City":"Hayward","Zip":"94545-4600","State":"CA","Latitude":37.624181,"Longitude":-122.08792},{"NUMTSTTAKR":149,"AVGSCR":1339.0,"School":"Impact Academy of Arts & Technology","Street":"2560 Darwin Street","City":"Hayward","Zip":"94545-3451","State":"CA","Latitude":37.77598,"Longitude":-122.39304},{"NUMTSTTAKR":0,"AVGSCR":null,"School":"Silver Oak High Public Montessori Charter","Street":"951 Palisade Street","City":"Hayward","Zip":"94542-1048","State":"CA","Latitude":null,"Longitude":null},{"NUMTSTTAKR":2,"AVGSCR":null,"School":"Brenkwitz High","Street":"22100 Princeton Street","City":"Hayward","Zip":"94541-3817","State":"CA","Latitude":37.671941,"Longitude":-122.09898},{"NUMTSTTAKR":204,"AVGSCR":1338.0,"School":"Hayward High","Street":"1633 East Avenue","City":"Hayward","Zip":"94541-5314","State":"CA","Latitude":37.671061,"Longitude":-122.07022},{"NUMTSTTAKR":251,"AVGSCR":1380.0,"School":"Mt. Eden High","Street":"2300 Panama Street","City":"Hayward","Zip":"94545-4662","State":"CA","Latitude":37.625336,"Longitude":-122.09058},{"NUMTSTTAKR":152,"AVGSCR":1271.0,"School":"Tennyson High","Street":"27035 Whitman Road","City":"Hayward","Zip":"94544-4099","State":"CA","Latitude":37.641815,"Longitude":-122.06826},{"NUMTSTTAKR":5,"AVGSCR":null,"School":"Vineyard Alternative","Street":"1401 Almond Avenue","City":"Livermore","Zip":"94550-5043","State":"CA","Latitude":37.677169,"Longitude":-121.73984},{"NUMTSTTAKR":349,"AVGSCR":1643.0,"School":"Granada High","Street":"400 Wall Street","City":"Livermore","Zip":"94550-4066","State":"CA","Latitude":37.675207,"Longitude":-121.7878},{"NUMTSTTAKR":264,"AVGSCR":1610.0,"School":"Livermore High","Street":"600 Maple Street","City":"Livermore","Zip":"94550-3298","State":"CA","Latitude":37.680506,"Longitude":-121.76174},{"NUMTSTTAKR":324,"AVGSCR":1507.0,"School":"Newark Memorial High","Street":"39375 Cedar Boulevard","City":"Newark","Zip":"94560-5007","State":"CA","Latitude":37.522118,"Longitude":-122.00175},{"NUMTSTTAKR":0,"AVGSCR":null,"School":"Crossroads High (Alternative)","Street":"35753 Cedar Boulevard","City":"Newark","Zip":"94560-1324","State":"CA","Latitude":37.550583,"Longitude":-122.03779},{"NUMTSTTAKR":1,"AVGSCR":null,"School":"Core Learning Academy at Conley-Caraballo High","Street":"541 Blanche Street","City":"Hayward","Zip":"94544-7700","State":"CA","Latitude":37.615224,"Longitude":-122.02878},{"NUMTSTTAKR":0,"AVGSCR":null,"School":"Decoto School for Independent Study","Street":"600 G Street","City":"Union City","Zip":"94587-2400","State":"CA","Latitude":null,"Longitude":null},{"NUMTSTTAKR":706,"AVGSCR":1516.0,"School":"James Logan High","Street":"1800 H Street","City":"Union City","Zip":"94587-3321","State":"CA","Latitude":37.592497,"Longitude":-122.02607},{"NUMTSTTAKR":49,"AVGSCR":1220.0,"School":"Oakland Unity High","Street":"6038 Brann Street","City":"Oakland","Zip":"94605-1544","State":"CA","Latitude":37.773689,"Longitude":-122.18551},{"NUMTSTTAKR":42,"AVGSCR":1182.0,"School":"MetWest High","Street":"1100 3rd Avenue","City":"Oakland","Zip":"94606-2302","State":"CA","Latitude":37.79521,"Longitude":-122.2581},{"NUMTSTTAKR":18,"AVGSCR":1287.0,"School":"Bay Area Technology","Street":"8251 Fontaine Street","City":"Oakland","Zip":"94605-4109","State":"CA","Latitude":37.833537,"Longitude":-122.26015},{"NUMTSTTAKR":41,"AVGSCR":1363.0,"School":"Lighthouse Community Charter High","Street":"444 Hegenberger Road","City":"Oakland","Zip":"94621-1418","State":"CA","Latitude":37.805941,"Longitude":-122.26966},{"NUMTSTTAKR":43,"AVGSCR":1044.0,"School":"McClymonds High","Street":"2607 Myrtle Street","City":"Oakland","Zip":"94607-3415","State":"CA","Latitude":37.817852,"Longitude":-122.2786},{"NUMTSTTAKR":60,"AVGSCR":1546.0,"School":"American Indian Public High","Street":"3637 Magee Avenue","City":"Oakland","Zip":"94619-1427","State":"CA","Latitude":37.793899,"Longitude":-122.19987},{"NUMTSTTAKR":27,"AVGSCR":1251.0,"School":"Coliseum College Prep Academy","Street":"1390 66th Avenue","City":"Oakland","Zip":"94621-3506","State":"CA","Latitude":37.762001,"Longitude":-122.19339},{"NUMTSTTAKR":79,"AVGSCR":1682.0,"School":"Oakland Charter High","Street":"345 12th Street","City":"Oakland","Zip":"94607-4217","State":"CA","Latitude":37.800186,"Longitude":-122.26566},{"NUMTSTTAKR":47,"AVGSCR":1078.0,"School":"ARISE High","Street":"3301 East 12th Street, Suite 205","City":"Oakland","Zip":"94601-2940","State":"CA","Latitude":37.776188,"Longitude":-122.22507},{"NUMTSTTAKR":0,"AVGSCR":null,"School":"Civicorps Corpsmember Academy","Street":"101 Myrtle Street","City":"Oakland","Zip":"94607-2507","State":"CA","Latitude":37.79877,"Longitude":-122.28552},{"NUMTSTTAKR":15,"AVGSCR":1125.0,"School":"Oakland International High","Street":"4521 Webster Street","City":"Oakland","Zip":"94609-2140","State":"CA","Latitude":37.833537,"Longitude":-122.26015},{"NUMTSTTAKR":56,"AVGSCR":1131.0,"School":"Aspire Golden State College Preparatory Academy","Street":"1009 66th Avenue","City":"Oakland","Zip":"94610-3430","State":"CA","Latitude":37.761474,"Longitude":-122.17103},{"NUMTSTTAKR":0,"AVGSCR":null,"School":"Gateway to College at Laney College","Street":"900 Fallon Street","City":"Oakland","Zip":"94607-4808","State":"CA","Latitude":37.797166,"Longitude":-122.2638},{"NUMTSTTAKR":80,"AVGSCR":1108.0,"School":"Castlemont High","Street":"8601 MacArthur Boulevard","City":"Oakland","Zip":"94605-4037","State":"CA","Latitude":null,"Longitude":null},{"NUMTSTTAKR":72,"AVGSCR":1167.0,"School":"Fremont High","Street":"4610 Foothill Boulevard","City":"Oakland","Zip":"94601-4618","State":"CA","Latitude":null,"Longitude":null},{"NUMTSTTAKR":8,"AVGSCR":null,"School":"LPS Oakland R & D Campus","Street":"8601 MacArthur Boulevard, Building 100","City":"Oakland","Zip":"94605-4037","State":"CA","Latitude":null,"Longitude":null},{"NUMTSTTAKR":1,"AVGSCR":null,"School":"Rudsdale Continuation","Street":"8251 Fontaine Street","City":"Oakland","Zip":"94605-4109","State":"CA","Latitude":37.759364,"Longitude":-122.19094},{"NUMTSTTAKR":3,"AVGSCR":null,"School":"Street Academy (Alternative)","Street":"417 29th Street","City":"Oakland","Zip":"94609-3510","State":"CA","Latitude":37.817462,"Longitude":-122.26559},{"NUMTSTTAKR":63,"AVGSCR":1223.0,"School":"LIFE Academy","Street":"2101 35th Avenue","City":"Oakland","Zip":"94601-3124","State":"CA","Latitude":37.784263,"Longitude":-122.21674},{"NUMTSTTAKR":72,"AVGSCR":1311.0,"School":"Oakland Military Institute, College Preparatory Academy","Street":"3877 Lusk Street","City":"Oakland","Zip":"94608-3822","State":"CA","Latitude":37.829387,"Longitude":-122.27231},{"NUMTSTTAKR":84,"AVGSCR":1246.0,"School":"Aspire Lionel Wilson College Preparatory Academy","Street":"400 105th Avenue","City":"Oakland","Zip":"94603-2968","State":"CA","Latitude":37.729396,"Longitude":-122.18051},{"NUMTSTTAKR":251,"AVGSCR":1290.0,"School":"Oakland High","Street":"1023 MacArthur Boulevard","City":"Oakland","Zip":"94610-3930","State":"CA","Latitude":37.805315,"Longitude":-122.23651},{"NUMTSTTAKR":424,"AVGSCR":1548.0,"School":"Oakland Technical High","Street":"4351 Broadway","City":"Oakland","Zip":"94611-4612","State":"CA","Latitude":37.832211,"Longitude":-122.25534},{"NUMTSTTAKR":232,"AVGSCR":1390.0,"School":"Skyline High","Street":"12250 Skyline Boulevard","City":"Oakland","Zip":"94619-2425","State":"CA","Latitude":37.79872,"Longitude":-122.16086},{"NUMTSTTAKR":92,"AVGSCR":1509.0,"School":"Oakland School for the Arts","Street":"530 18th Street","City":"Oakland","Zip":"94612-1512","State":"CA","Latitude":37.807922,"Longitude":-122.27232},{"NUMTSTTAKR":0,"AVGSCR":null,"School":"Madison Park Academy 6-12","Street":"400 Capistrano Drive","City":"Oakland","Zip":"94603-3520","State":"CA","Latitude":37.727751,"Longitude":-122.1792},{"NUMTSTTAKR":6,"AVGSCR":null,"School":"Independent Study, Sojourner Truth","Street":"8251 Fontaine Street","City":"Oakland","Zip":"94605-4109","State":"CA","Latitude":37.766461,"Longitude":-122.15449},{"NUMTSTTAKR":11,"AVGSCR":1414.0,"School":"Millennium High Alternative","Street":"760 Magnolia Avenue","City":"Piedmont","Zip":"94611-4029","State":"CA","Latitude":37.822489,"Longitude":-122.2332},{"NUMTSTTAKR":195,"AVGSCR":1879.0,"School":"Piedmont High","Street":"800 Magnolia Avenue","City":"Piedmont","Zip":"94611-4029","State":"CA","Latitude":37.823691,"Longitude":-122.23293},{"NUMTSTTAKR":446,"AVGSCR":1396.0,"School":"San Leandro High","Street":"2200 Bancroft Avenue","City":"San Leandro","Zip":"94577-6108","State":"CA","Latitude":37.718635,"Longitude":-122.14084},{"NUMTSTTAKR":29,"AVGSCR":1265.0,"School":"East Bay Arts High","Street":"20450 Royal Avenue","City":"Hayward","Zip":"94541-4712","State":"CA","Latitude":37.669316,"Longitude":-122.11418},{"NUMTSTTAKR":160,"AVGSCR":1473.0,"School":"KIPP King Collegiate High","Street":"2005 Via Barrett","City":"San Lorenzo","Zip":"94580-1315","State":"CA","Latitude":37.674271,"Longitude":-122.14983},{"NUMTSTTAKR":324,"AVGSCR":1508.0,"School":"Arroyo High","Street":"15701 Lorenzo Avenue","City":"San Lorenzo","Zip":"94580-1407","State":"CA","Latitude":37.680819,"Longitude":-122.13833},{"NUMTSTTAKR":1,"AVGSCR":null,"School":"Royal Sunset (Continuation)","Street":"20450 Royal Avenue","City":"Hayward","Zip":"94541-4712","State":"CA","Latitude":37.669316,"Longitude":-122.11418},{"NUMTSTTAKR":183,"AVGSCR":1306.0,"School":"San Lorenzo High","Street":"50 East Lewelling Boulevard","City":"San Lorenzo","Zip":"94580-1732","State":"CA","Latitude":37.688598,"Longitude":-122.12295},{"NUMTSTTAKR":413,"AVGSCR":1617.0,"School":"Dublin High","Street":"8151 Village Parkway","City":"Dublin","Zip":"94568-1656","State":"CA","Latitude":37.720901,"Longitude":-121.92404},{"NUMTSTTAKR":539,"AVGSCR":1765.0,"School":"Foothill High","Street":"4375 Foothill Road","City":"Pleasanton","Zip":"94588-9799","State":"CA","Latitude":37.672086,"Longitude":-121.91796},{"NUMTSTTAKR":689,"AVGSCR":1792.0,"School":"Amador Valley High","Street":"1155 Santa Rita Road","City":"Pleasanton","Zip":"94566-6176","State":"CA","Latitude":37.668294,"Longitude":-121.87324},{"NUMTSTTAKR":96,"AVGSCR":1575.0,"School":"Livermore Valley Charter Preparatory High","Street":"2451 Portola Avenue","City":"Livermore","Zip":"94551-1756","State":"CA","Latitude":37.672849,"Longitude":-121.79396},{"NUMTSTTAKR":0,"AVGSCR":null,"School":"North Star Independent Study","Street":"525 Independence Drive","City":"Sutter Creek","Zip":"95685-9669","State":"CA","Latitude":38.37775,"Longitude":-120.80849},{"NUMTSTTAKR":83,"AVGSCR":1575.0,"School":"Amador High","Street":"330 Spanish Street","City":"Sutter Creek","Zip":"95685-9701","State":"CA","Latitude":38.398749,"Longitude":-120.80971},{"NUMTSTTAKR":46,"AVGSCR":1576.0,"School":"Argonaut High","Street":"501 Argonaut Lane","City":"Jackson","Zip":"95642-2020","State":"CA","Latitude":38.353835,"Longitude":-120.79181},{"NUMTSTTAKR":30,"AVGSCR":1532.0,"School":"CORE Butte Charter","Street":"260 Cohasset Road, Suite 120","City":"Chico","Zip":"95926-2282","State":"CA","Latitude":39.754008,"Longitude":-121.85102},{"NUMTSTTAKR":0,"AVGSCR":null,"School":"Learning Community Charter","Street":"1859 Bird Street","City":"Oroville","Zip":"95965-4854","State":"CA","Latitude":39.512396,"Longitude":-121.55649},{"NUMTSTTAKR":18,"AVGSCR":1296.0,"School":"Biggs High","Street":"3046 Second Street","City":"Biggs","Zip":"95917-9732","State":"CA","Latitude":39.415918,"Longitude":-121.70713},{"NUMTSTTAKR":53,"AVGSCR":1704.0,"School":"Inspire School of Arts and Sciences","Street":"901 The Esplanade","City":"Chico","Zip":"95926-3908","State":"CA","Latitude":39.735566,"Longitude":-121.84536},{"NUMTSTTAKR":0,"AVGSCR":null,"School":"Oakdale","Street":"290 East Avenue","City":"Chico","Zip":"95926-1122","State":"CA","Latitude":39.758711,"Longitude":-121.83771},{"NUMTSTTAKR":216,"AVGSCR":1612.0,"School":"Chico High","Street":"901 Esplanade","City":"Chico","Zip":"95926-3908","State":"CA","Latitude":39.735716,"Longitude":-121.84501},{"NUMTSTTAKR":222,"AVGSCR":1605.0,"School":"Pleasant Valley High","Street":"1475 East Avenue","City":"Chico","Zip":"95926-1699","State":"CA","Latitude":39.760087,"Longitude":-121.81716},{"NUMTSTTAKR":60,"AVGSCR":1557.0,"School":"Durham High","Street":"9455 Putney Drive","City":"Durham","Zip":"95938-9426","State":"CA","Latitude":39.646275,"Longitude":-121.80311},{"NUMTSTTAKR":0,"AVGSCR":null,"School":"Ipakanni Early College Charter","Street":"1459 Downer Street","City":"Oroville","Zip":"95966-8887","State":"CA","Latitude":null,"Longitude":null},{"NUMTSTTAKR":0,"AVGSCR":null,"School":"Pivot Charter School North Valley","Street":"2550 Lakewest Drive, Suite 30","City":"Chico","Zip":"95928-8419","State":"CA","Latitude":null,"Longitude":null},{"NUMTSTTAKR":53,"AVGSCR":1516.0,"School":"Las Plumas High","Street":"2380 Las Plumas Avenue","City":"Oroville","Zip":"95966-7305","State":"CA","Latitude":39.480659,"Longitude":-121.54101},{"NUMTSTTAKR":72,"AVGSCR":1381.0,"School":"Oroville High","Street":"1535 Bridge Street","City":"Oroville","Zip":"95966-5060","State":"CA","Latitude":39.51459,"Longitude":-121.54543},{"NUMTSTTAKR":0,"AVGSCR":null,"School":"Paradise eLearning Academy","Street":"5911 Maxwell Drive","City":"Paradise","Zip":"95969-4023","State":"CA","Latitude":null,"Longitude":null},{"NUMTSTTAKR":76,"AVGSCR":1565.0,"School":"Paradise Senior High","Street":"5911 Maxwell Drive","City":"Paradise","Zip":"95969-4023","State":"CA","Latitude":39.761643,"Longitude":-121.61406},{"NUMTSTTAKR":0,"AVGSCR":null,"School":"Hometech Charter","Street":"7126 Skyway","City":"Paradise","Zip":"95969-3271","State":"CA","Latitude":39.765519,"Longitude":-121.61688},{"NUMTSTTAKR":53,"AVGSCR":1472.0,"School":"Gridley High","Street":"300 East Spruce Street","City":"Gridley","Zip":"95948-2235","State":"CA","Latitude":39.367857,"Longitude":-121.68155},{"NUMTSTTAKR":3,"AVGSCR":null,"School":"Mountain Oaks","Street":"150 Old Oak Road","City":"San Andreas","Zip":"95249","State":"CA","Latitude":38.188445,"Longitude":-120.69093},{"NUMTSTTAKR":0,"AVGSCR":null,"School":"John Vierra High","Street":"364 Murphys Grade Rd","City":"Angels Camp","Zip":"95221","State":"CA","Latitude":38.087859,"Longitude":-120.4746},{"NUMTSTTAKR":84,"AVGSCR":1612.0,"School":"Bret Harte Union High","Street":"364 Murphys Grade Road","City":"Angels Camp","Zip":"95221-0208","State":"CA","Latitude":38.0811,"Longitude":-120.55183},{"NUMTSTTAKR":0,"AVGSCR":null,"School":"Calaveras Unified Alternative-Sierra Hills Education Center","Street":"501 Gold Strike Road","City":"San Andreas","Zip":"95249-0178","State":"CA","Latitude":38.212714,"Longitude":-120.68647},{"NUMTSTTAKR":75,"AVGSCR":1512.0,"School":"Calaveras High","Street":"350 High School Street","City":"San Andreas","Zip":"95249-0607","State":"CA","Latitude":38.200455,"Longitude":-120.68384},{"NUMTSTTAKR":0,"AVGSCR":null,"School":"Colusa Alternative Home","Street":"745 10th Street","City":"Colusa","Zip":"95932-2220","State":"CA","Latitude":39.210709,"Longitude":-122.01661},{"NUMTSTTAKR":48,"AVGSCR":1455.0,"School":"Colusa High","Street":"901 Colus Avenue","City":"Colusa","Zip":"95932-3024","State":"CA","Latitude":39.200824,"Longitude":-122.0207},{"NUMTSTTAKR":14,"AVGSCR":1428.0,"School":"Maxwell Jr\/Sr High","Street":"515 Oak Street","City":"Maxwell","Zip":"95955-0788","State":"CA","Latitude":39.276225,"Longitude":-122.20354},{"NUMTSTTAKR":39,"AVGSCR":1347.0,"School":"Pierce High","Street":"960 Wildwood Road","City":"Arbuckle","Zip":"95912-9714","State":"CA","Latitude":39.009382,"Longitude":-122.05603},{"NUMTSTTAKR":18,"AVGSCR":1389.0,"School":"Williams Junior\/Senior High","Street":"222 11th Street","City":"Williams","Zip":"95987","State":"CA","Latitude":39.155245,"Longitude":-122.15657},{"NUMTSTTAKR":56,"AVGSCR":1353.0,"School":"Making Waves Academy","Street":"4123 Lakeside Drive","City":"Richmond","Zip":"94806-1942","State":"CA","Latitude":37.988828,"Longitude":-122.33301},{"NUMTSTTAKR":354,"AVGSCR":1524.0,"School":"Clayton Valley Charter High","Street":"1101 Alberta Way","City":"Concord","Zip":"94521-3799","State":"CA","Latitude":null,"Longitude":null},{"NUMTSTTAKR":3,"AVGSCR":null,"School":"Acalanes Center for Independent Study","Street":"1963 Tice Valley Boulevard","City":"Walnut Creek","Zip":"94595-2201","State":"CA","Latitude":37.877684,"Longitude":-122.0742},{"NUMTSTTAKR":353,"AVGSCR":1780.0,"School":"Acalanes High","Street":"1200 Pleasant Hill Road","City":"Lafayette","Zip":"94549-2623","State":"CA","Latitude":37.904777,"Longitude":-122.09761},{"NUMTSTTAKR":369,"AVGSCR":1804.0,"School":"Campolindo High","Street":"300 Moraga Road","City":"Moraga","Zip":"94556-2402","State":"CA","Latitude":37.863503,"Longitude":-122.12461},{"NUMTSTTAKR":351,"AVGSCR":1679.0,"School":"Las Lomas High","Street":"1460 South Main Street","City":"Walnut Creek","Zip":"94596-5319","State":"CA","Latitude":37.890451,"Longitude":-122.05556},{"NUMTSTTAKR":333,"AVGSCR":1849.0,"School":"Miramonte High","Street":"750 Moraga Way","City":"Orinda","Zip":"94563-4330","State":"CA","Latitude":37.841159,"Longitude":-122.14738},{"NUMTSTTAKR":108,"AVGSCR":1441.0,"School":"Dozier-Libbey Medical High","Street":"4900 Sand Creek Road","City":"Antioch","Zip":"94531-8680","State":"CA","Latitude":37.949046,"Longitude":-121.77743},{"NUMTSTTAKR":0,"AVGSCR":null,"School":"Prospects High (Alternative)","Street":"820 West Second Street","City":"Antioch","Zip":"94509-1145","State":"CA","Latitude":38.01694,"Longitude":-121.8162},{"NUMTSTTAKR":335,"AVGSCR":1443.0,"School":"Deer Valley High","Street":"4700 Lone Tree Way","City":"Antioch","Zip":"94531-8486","State":"CA","Latitude":37.969,"Longitude":-121.7777},{"NUMTSTTAKR":148,"AVGSCR":1382.0,"School":"Antioch High","Street":"700 West 18th Street","City":"Antioch","Zip":"94509-1576","State":"CA","Latitude":38.006634,"Longitude":-121.81732},{"NUMTSTTAKR":38,"AVGSCR":1488.0,"School":"John Swett High","Street":"1098 Pomona Street","City":"Crockett","Zip":"94525-1426","State":"CA","Latitude":38.05357,"Longitude":-122.22113},{"NUMTSTTAKR":415,"AVGSCR":1559.0,"School":"Heritage High","Street":"101 American Avenue","City":"Brentwood","Zip":"94513-4604","State":"CA","Latitude":37.925169,"Longitude":-121.75247},{"NUMTSTTAKR":270,"AVGSCR":1436.0,"School":"Freedom High","Street":"1050 Neroly Road","City":"Oakley","Zip":"94561-3843","State":"CA","Latitude":37.969051,"Longitude":-121.71576},{"NUMTSTTAKR":1,"AVGSCR":null,"School":"Independence High","Street":"929 Second Street","City":"Brentwood","Zip":"94513-1137","State":"CA","Latitude":37.935674,"Longitude":-121.69593},{"NUMTSTTAKR":281,"AVGSCR":1443.0,"School":"Liberty High","Street":"850 Second Street","City":"Brentwood","Zip":"94513-1132","State":"CA","Latitude":37.93488,"Longitude":-121.69513},{"NUMTSTTAKR":1,"AVGSCR":null,"School":"La Paloma High (Continuation)","Street":"400 Ghiggeri Way","City":"Brentwood","Zip":"94513-5314","State":"CA","Latitude":37.961538,"Longitude":-121.7299},{"NUMTSTTAKR":0,"AVGSCR":null,"School":"Briones (Alternative)","Street":"614 F Street","City":"Martinez","Zip":"94553-3212","State":"CA","Latitude":38.000876,"Longitude":-122.13066},{"NUMTSTTAKR":167,"AVGSCR":1620.0,"School":"Alhambra Senior High","Street":"150 E Street","City":"Martinez","Zip":"94553-3139","State":"CA","Latitude":38.002517,"Longitude":-122.1337},{"NUMTSTTAKR":261,"AVGSCR":1735.0,"School":"Northgate High","Street":"425 Castle Rock Road","City":"Walnut Creek","Zip":"94598-4599","State":"CA","Latitude":37.910029,"Longitude":-122.01092},{"NUMTSTTAKR":1,"AVGSCR":null,"School":"Horizons Alternative","Street":"1 Santa Barbara Road","City":"Pleasant Hill","Zip":"94523-4496","State":"CA","Latitude":37.935744,"Longitude":-122.06813},{"NUMTSTTAKR":285,"AVGSCR":1643.0,"School":"College Park High","Street":"201 Viking Drive","City":"Pleasant Hill","Zip":"94523-1809","State":"CA","Latitude":37.963862,"Longitude":-122.07174},{"NUMTSTTAKR":150,"AVGSCR":1493.0,"School":"Concord High","Street":"4200 Concord Boulevard","City":"Concord","Zip":"94521-1059","State":"CA","Latitude":37.978216,"Longitude":-121.98775},{"NUMTSTTAKR":127,"AVGSCR":1309.0,"School":"Mt. Diablo High","Street":"2455 Grant Street","City":"Concord","Zip":"94520-2252","State":"CA","Latitude":37.983027,"Longitude":-122.03578},{"NUMTSTTAKR":116,"AVGSCR":1365.0,"School":"Ygnacio Valley High","Street":"755 Oak Grove Road","City":"Concord","Zip":"94518-2899","State":"CA","Latitude":37.936686,"Longitude":-122.02323},{"NUMTSTTAKR":1,"AVGSCR":null,"School":"Black Diamond High (Continuation)","Street":"1131 Stoneman Avenue","City":"Pittsburg","Zip":"94565-5466","State":"CA","Latitude":38.004737,"Longitude":-121.87373},{"NUMTSTTAKR":327,"AVGSCR":1329.0,"School":"Pittsburg Senior High","Street":"1750 Harbor Street","City":"Pittsburg","Zip":"94565-4615","State":"CA","Latitude":38.019063,"Longitude":-121.88456},{"NUMTSTTAKR":129,"AVGSCR":1299.0,"School":"Leadership Public Schools: Richmond","Street":"251 South 12th Street","City":"Richmond","Zip":"94804-2411","State":"CA","Latitude":37.928698,"Longitude":-122.35805},{"NUMTSTTAKR":2,"AVGSCR":null,"School":"North Campus Continuation","Street":"2465 Dolan Way","City":"San Pablo","Zip":"94806-1644","State":"CA","Latitude":37.993819,"Longitude":-122.31914},{"NUMTSTTAKR":108,"AVGSCR":1524.0,"School":"Middle College High","Street":"2600 Mission Bell Drive","City":"San Pablo","Zip":"94806-3195","State":"CA","Latitude":37.968809,"Longitude":-122.34202},{"NUMTSTTAKR":0,"AVGSCR":null,"School":"Vista High (Alternative)","Street":"2625 Barnard Road","City":"San Pablo","Zip":"94806-2703","State":"CA","Latitude":37.96746,"Longitude":-122.3249},{"NUMTSTTAKR":274,"AVGSCR":1392.0,"School":"Hercules High","Street":"1900 Refugio Valley Road","City":"Hercules","Zip":"94547-1554","State":"CA","Latitude":37.999763,"Longitude":-122.25196},{"NUMTSTTAKR":201,"AVGSCR":1277.0,"School":"De Anza Senior High","Street":"5000 Valley View Road","City":"Richmond","Zip":"94803-2599","State":"CA","Latitude":37.967289,"Longitude":-122.28556},{"NUMTSTTAKR":349,"AVGSCR":1401.0,"School":"El Cerrito Senior High","Street":"540 Ashbury Avenue","City":"El Cerrito","Zip":"94530-3299","State":"CA","Latitude":37.9068,"Longitude":-122.29374},{"NUMTSTTAKR":8,"AVGSCR":null,"School":"Gompers (Samuel) Continuation","Street":"715 Chanslor Avenue","City":"Richmond","Zip":"94801-3533","State":"CA","Latitude":37.933375,"Longitude":-122.36094},{"NUMTSTTAKR":129,"AVGSCR":1104.0,"School":"Kennedy High","Street":"4300 Cutting Boulevard","City":"Richmond","Zip":"94804-3399","State":"CA","Latitude":37.924175,"Longitude":-122.32929},{"NUMTSTTAKR":274,"AVGSCR":1337.0,"School":"Pinole Valley High","Street":"2900 Pinole Valley Road","City":"Pinole","Zip":"94564-1499","State":"CA","Latitude":37.990114,"Longitude":-122.28586},{"NUMTSTTAKR":294,"AVGSCR":1105.0,"School":"Richmond High","Street":"1250 23rd Street","City":"Richmond","Zip":"94804-1091","State":"CA","Latitude":37.951964,"Longitude":-122.34425},{"NUMTSTTAKR":704,"AVGSCR":1853.0,"School":"Dougherty Valley High","Street":"10550 Albion Road","City":"San Ramon","Zip":"94582-2901","State":"CA","Latitude":37.769447,"Longitude":-121.90321},{"NUMTSTTAKR":663,"AVGSCR":1716.0,"School":"California High","Street":"9870 Broadmoor Drive","City":"San Ramon","Zip":"94583-2942","State":"CA","Latitude":37.747584,"Longitude":-121.94516},{"NUMTSTTAKR":13,"AVGSCR":1628.0,"School":"Venture (Alternative)","Street":"10540 Albion Road","City":"San Ramon","Zip":"94582-2901","State":"CA","Latitude":37.767166,"Longitude":-121.90381},{"NUMTSTTAKR":509,"AVGSCR":1720.0,"School":"Monte Vista High","Street":"3131 Stone Valley Road","City":"Danville","Zip":"94526-1129","State":"CA","Latitude":37.844814,"Longitude":-121.98233},{"NUMTSTTAKR":546,"AVGSCR":1724.0,"School":"San Ramon Valley High","Street":"501 Danville Boulevard","City":"Danville","Zip":"94526-2404","State":"CA","Latitude":37.82596,"Longitude":-122.00654},{"NUMTSTTAKR":0,"AVGSCR":null,"School":"Synergy","Street":"355 East Leland Road","City":"Pittsburg","Zip":"94565-4911","State":"CA","Latitude":null,"Longitude":null},{"NUMTSTTAKR":0,"AVGSCR":null,"School":"Klamath River Early College of the Redwoods","Street":"510 E Washington Blvd","City":"Crescent City","Zip":"95531","State":"CA","Latitude":41.532809,"Longitude":-124.04112},{"NUMTSTTAKR":0,"AVGSCR":null,"School":"Castle Rock","Street":"1260 Glenn Street","City":"Crescent City","Zip":"95531-2113","State":"CA","Latitude":41.767855,"Longitude":-124.2114},{"NUMTSTTAKR":79,"AVGSCR":1445.0,"School":"Del Norte High","Street":"1301 El Dorado Street","City":"Crescent City","Zip":"95531-2110","State":"CA","Latitude":41.76731,"Longitude":-124.20917},{"NUMTSTTAKR":22,"AVGSCR":1708.0,"School":"Charter Community School Home Study Academy","Street":"6767 Green Valley Road","City":"Placerville","Zip":"95667-8984","State":"CA","Latitude":38.722027,"Longitude":-120.86681},{"NUMTSTTAKR":552,"AVGSCR":1671.0,"School":"Oak Ridge High","Street":"1120 Harvard Way","City":"El Dorado Hills","Zip":"95762-4324","State":"CA","Latitude":38.679867,"Longitude":-121.07066},{"NUMTSTTAKR":120,"AVGSCR":1584.0,"School":"Union Mine High","Street":"6530 Koki Lane","City":"El Dorado","Zip":"95623-4328","State":"CA","Latitude":38.681604,"Longitude":-120.83823},{"NUMTSTTAKR":3,"AVGSCR":null,"School":"EDUHSD Virtual Academy at Shenandoah","Street":"6540 Koki Lane","City":"El Dorado","Zip":"95623-4328","State":"CA","Latitude":38.681779,"Longitude":-120.83821},{"NUMTSTTAKR":164,"AVGSCR":1610.0,"School":"El Dorado High","Street":"561 Canal Street","City":"Placerville","Zip":"95667-4312","State":"CA","Latitude":38.732304,"Longitude":-120.81276},{"NUMTSTTAKR":278,"AVGSCR":1618.0,"School":"Ponderosa High","Street":"3661 Ponderosa Road","City":"Shingle Springs","Zip":"95682-9435","State":"CA","Latitude":38.673086,"Longitude":-120.94088},{"NUMTSTTAKR":150,"AVGSCR":1532.0,"School":"South Tahoe High","Street":"1735 Lake Tahoe Boulevard","City":"South Lake Tahoe","Zip":"96150-3718","State":"CA","Latitude":38.907347,"Longitude":-120.01258},{"NUMTSTTAKR":0,"AVGSCR":null,"School":"American River Charter","Street":"6620 Wentworth Springs Road","City":"Georgetown","Zip":"95634-9701","State":"CA","Latitude":null,"Longitude":null},{"NUMTSTTAKR":45,"AVGSCR":1544.0,"School":"Golden Sierra Junior Senior High","Street":"5101 Garden Valley Road","City":"Garden Valley","Zip":"95633-0175","State":"CA","Latitude":38.849362,"Longitude":-120.85628},{"NUMTSTTAKR":10,"AVGSCR":null,"School":"Pacific Technology School Santa Ana","Street":"102 Baker Street East","City":"Costa Mesa","Zip":"92626","State":"CA","Latitude":33.680122,"Longitude":-117.87779},{"NUMTSTTAKR":0,"AVGSCR":null,"School":"Crescent View West Charter","Street":"1901 East Shields Avenue, Suite 130","City":"Fresno","Zip":"93726-5309","State":"CA","Latitude":null,"Longitude":null},{"NUMTSTTAKR":1,"AVGSCR":null,"School":"Hume Lake Charter","Street":"64144 Hume Lake Road","City":"Hume","Zip":"93628-9602","State":"CA","Latitude":36.809081,"Longitude":-118.90658},{"NUMTSTTAKR":5,"AVGSCR":null,"School":"Big Picture High School - Fresno","Street":"1207 South Trinity Street","City":"Fresno","Zip":"93706-2611","State":"CA","Latitude":36.730127,"Longitude":-119.80845},{"NUMTSTTAKR":469,"AVGSCR":1596.0,"School":"Clovis North High","Street":"2770 East International Avenue","City":"Fresno","Zip":"93730-5400","State":"CA","Latitude":36.888408,"Longitude":-119.75277},{"NUMTSTTAKR":16,"AVGSCR":1339.0,"School":"Clovis Online Charter","Street":"1655 David E. Cook Way","City":"Clovis","Zip":"93611-0581","State":"CA","Latitude":36.837546,"Longitude":-119.68977},{"NUMTSTTAKR":472,"AVGSCR":1545.0,"School":"Clovis West High","Street":"1070 East Teague Avenue","City":"Fresno","Zip":"93720-1899","State":"CA","Latitude":36.86132,"Longitude":-119.76346},{"NUMTSTTAKR":1,"AVGSCR":null,"School":"Enterprise Alternative","Street":"1550 Herndon Avenue","City":"Clovis","Zip":"93611-0569","State":"CA","Latitude":36.837578,"Longitude":-119.68745},{"NUMTSTTAKR":480,"AVGSCR":1572.0,"School":"Buchanan High","Street":"1560 North Minnewawa Avenue","City":"Clovis","Zip":"93611-7698","State":"CA","Latitude":36.857338,"Longitude":-119.71317},{"NUMTSTTAKR":329,"AVGSCR":1407.0,"School":"Clovis East High","Street":"2940 Leonard Avenue","City":"Clovis","Zip":"93611-8474","State":"CA","Latitude":36.797552,"Longitude":-119.63892},{"NUMTSTTAKR":1,"AVGSCR":null,"School":"Gateway High (Continuation)","Street":"1550 Herndon Avenue","City":"Clovis","Zip":"93611-0598","State":"CA","Latitude":36.837578,"Longitude":-119.68745},{"NUMTSTTAKR":402,"AVGSCR":1472.0,"School":"Clovis High","Street":"1055 Fowler Avenue","City":"Clovis","Zip":"93611-2062","State":"CA","Latitude":36.818236,"Longitude":-119.68187},{"NUMTSTTAKR":82,"AVGSCR":1348.0,"School":"Coalinga High","Street":"750 Van Ness Avenue","City":"Coalinga","Zip":"93210-1541","State":"CA","Latitude":36.143874,"Longitude":-120.3627},{"NUMTSTTAKR":0,"AVGSCR":null,"School":"Fowler Academy Independent Study","Street":"975 East Adams Avenue","City":"Fowler","Zip":"93625-2702","State":"CA","Latitude":36.634539,"Longitude":-119.67399},{"NUMTSTTAKR":118,"AVGSCR":1266.0,"School":"Fowler High","Street":"701 East Main Street","City":"Fowler","Zip":"93625-2423","State":"CA","Latitude":36.633111,"Longitude":-119.67271},{"NUMTSTTAKR":49,"AVGSCR":1458.0,"School":"Design Science Early College High","Street":"2004 East Cambridge Avenue","City":"Fresno","Zip":"93703-2119","State":"CA","Latitude":36.769525,"Longitude":-119.78712},{"NUMTSTTAKR":15,"AVGSCR":1420.0,"School":"Sierra Charter","Street":"1931 North Fine Avenue","City":"Fresno","Zip":"93727-1510","State":"CA","Latitude":36.767953,"Longitude":-119.72976},{"NUMTSTTAKR":152,"AVGSCR":1754.0,"School":"University High","Street":"2611 East Matoian M\/S UH134","City":"Fresno","Zip":"93740","State":"CA","Latitude":36.809775,"Longitude":-119.74702},{"NUMTSTTAKR":3,"AVGSCR":null,"School":"Fresno Academy for Civic and Entrepreneurial Leadership","Street":"1713 Tulare Street, Suite 202","City":"Fresno","Zip":"93721","State":"CA","Latitude":36.752079,"Longitude":-119.77995},{"NUMTSTTAKR":391,"AVGSCR":1425.0,"School":"Bullard High","Street":"5445 North Palm Avenue","City":"Fresno","Zip":"93704-1941","State":"CA","Latitude":36.816443,"Longitude":-119.80828},{"NUMTSTTAKR":1,"AVGSCR":null,"School":"J. E. Young Academic Center","Street":"822 North Abby Street","City":"Fresno","Zip":"93701-1002","State":"CA","Latitude":36.753905,"Longitude":-119.78884},{"NUMTSTTAKR":125,"AVGSCR":1216.0,"School":"Erma Duncan Polytechnical High","Street":"4330 East Garland Avenue","City":"Fresno","Zip":"93726-6102","State":"CA","Latitude":36.78334,"Longitude":-119.75319},{"NUMTSTTAKR":1,"AVGSCR":null,"School":"Cambridge Continuation High","Street":"1001 South Chestnut","City":"Fresno","Zip":"93727-3907","State":"CA","Latitude":36.733446,"Longitude":-119.73613},{"NUMTSTTAKR":0,"AVGSCR":null,"School":"School of Unlimited Learning","Street":"2336 Calaveras Street","City":"Fresno","Zip":"93721-1104","State":"CA","Latitude":36.742475,"Longitude":-119.7928},{"NUMTSTTAKR":537,"AVGSCR":1228.0,"School":"Sunnyside High","Street":"1019 South Peach Avenue","City":"Fresno","Zip":"93727-4889","State":"CA","Latitude":36.733662,"Longitude":-119.71667},{"NUMTSTTAKR":0,"AVGSCR":null,"School":"Carter G. Woodson Public Charter","Street":"3333 North Bond Avenue","City":"Fresno","Zip":"93726-5712","State":"CA","Latitude":36.780939,"Longitude":-119.76843},{"NUMTSTTAKR":1,"AVGSCR":null,"School":"Dewolf Continuation High","Street":"2445 W Dakota","City":"Fresno","Zip":"93703-2124","State":"CA","Latitude":36.768825,"Longitude":-119.78607},{"NUMTSTTAKR":502,"AVGSCR":1408.0,"School":"Edison High","Street":"540 East California Avenue","City":"Fresno","Zip":"93706-3736","State":"CA","Latitude":36.721317,"Longitude":-119.80503},{"NUMTSTTAKR":98,"AVGSCR":1321.0,"School":"Fresno High","Street":"1839 Echo Avenue","City":"Fresno","Zip":"93704-6047","State":"CA","Latitude":36.766028,"Longitude":-119.80416},{"NUMTSTTAKR":245,"AVGSCR":1268.0,"School":"Herbert Hoover High","Street":"5550 North First Street","City":"Fresno","Zip":"93710-6201","State":"CA","Latitude":36.817488,"Longitude":-119.77202},{"NUMTSTTAKR":230,"AVGSCR":1140.0,"School":"McLane High","Street":"2727 North Cedar Avenue","City":"Fresno","Zip":"93703-2016","State":"CA","Latitude":36.775417,"Longitude":-119.75449},{"NUMTSTTAKR":231,"AVGSCR":1172.0,"School":"Roosevelt High","Street":"4250 East Tulare Street","City":"Fresno","Zip":"93702-3037","State":"CA","Latitude":36.743117,"Longitude":-119.75379},{"NUMTSTTAKR":0,"AVGSCR":null,"School":"Kingsburg Independent Study High","Street":"2311 Sierra Street","City":"Kingsburg","Zip":"93631-1457","State":"CA","Latitude":null,"Longitude":null},{"NUMTSTTAKR":157,"AVGSCR":1437.0,"School":"Kingsburg High","Street":"1900 18th Avenue","City":"Kingsburg","Zip":"93631-1629","State":"CA","Latitude":36.517914,"Longitude":-119.54783},{"NUMTSTTAKR":35,"AVGSCR":1181.0,"School":"Orange Cove High","Street":"1700 Anchor Avenue","City":"Orange Cove","Zip":"93646-2374","State":"CA","Latitude":36.617651,"Longitude":-119.32278},{"NUMTSTTAKR":0,"AVGSCR":null,"School":"Dunlap Leadership Academy","Street":"39500 Dunlap Road","City":"Dunlap","Zip":"93621","State":"CA","Latitude":36.734884,"Longitude":-119.11703},{"NUMTSTTAKR":0,"AVGSCR":null,"School":"Reedley Middle College High","Street":"995 North Reed Avenue","City":"Reedley","Zip":"93654-2017","State":"CA","Latitude":null,"Longitude":null},{"NUMTSTTAKR":0,"AVGSCR":null,"School":"Mountain View (Alternative)","Street":"877 E. North Avenue","City":"Reedley","Zip":"93654-2426","State":"CA","Latitude":36.604162,"Longitude":-119.45297},{"NUMTSTTAKR":184,"AVGSCR":1383.0,"School":"Reedley High","Street":"740 West North Avenue","City":"Reedley","Zip":"93654-2418","State":"CA","Latitude":36.600629,"Longitude":-119.45583},{"NUMTSTTAKR":0,"AVGSCR":null,"School":"Laton High","Street":"6449 DeWoody","City":"Laton","Zip":"93242-0248","State":"CA","Latitude":36.435277,"Longitude":-119.6827},{"NUMTSTTAKR":0,"AVGSCR":null,"School":"National University Academy - Orange Center","Street":"3530 South Cherry Avenue","City":"Fresno","Zip":"93706-5615","State":"CA","Latitude":null,"Longitude":null},{"NUMTSTTAKR":90,"AVGSCR":1191.0,"School":"Parlier High","Street":"603 Third Street","City":"Parlier","Zip":"93648-2028","State":"CA","Latitude":36.614281,"Longitude":-119.52536},{"NUMTSTTAKR":0,"AVGSCR":null,"School":"Ambassador Phillip V. Sanchez Public Charter","Street":"5659 East Kings Canyon Road, Suite 101","City":"Fresno","Zip":"93727-4641","State":"CA","Latitude":null,"Longitude":null},{"NUMTSTTAKR":0,"AVGSCR":null,"School":"Taft High","Street":"1801 Seventh Street","City":"Sanger","Zip":"93657-2857","State":"CA","Latitude":36.705876,"Longitude":-119.56211},{"NUMTSTTAKR":16,"AVGSCR":1633.0,"School":"Hallmark Charter","Street":"2445 Ninth Street","City":"Sanger","Zip":"93657-2780","State":"CA","Latitude":36.703093,"Longitude":-119.57139},{"NUMTSTTAKR":407,"AVGSCR":1359.0,"School":"Sanger High","Street":"1045 Bethel Avenue","City":"Sanger","Zip":"93657-2985","State":"CA","Latitude":36.720488,"Longitude":-119.57407},{"NUMTSTTAKR":0,"AVGSCR":null,"School":"Selma Independent","Street":"2269 Sylvia Street","City":"Selma","Zip":"93662-3436","State":"CA","Latitude":36.569196,"Longitude":-119.61834},{"NUMTSTTAKR":224,"AVGSCR":1324.0,"School":"Selma High","Street":"3125 Wright Street","City":"Selma","Zip":"93662-2429","State":"CA","Latitude":36.580901,"Longitude":-119.61516},{"NUMTSTTAKR":1,"AVGSCR":null,"School":"West Park Charter Academy","Street":"2695 South Valentine Avenue","City":"Fresno","Zip":"93706-9042","State":"CA","Latitude":36.691381,"Longitude":-119.85346},{"NUMTSTTAKR":2,"AVGSCR":null,"School":"Crescent View South Charter","Street":"1901 East Shields Avenue, Suite 169","City":"Fresno","Zip":"93726-5318","State":"CA","Latitude":36.782314,"Longitude":-119.79041},{"NUMTSTTAKR":0,"AVGSCR":null,"School":"Opportunities For Learning - Fresno","Street":"1515 Divisadero Street","City":"Fresno","Zip":"93721-1115","State":"CA","Latitude":null,"Longitude":null},{"NUMTSTTAKR":122,"AVGSCR":1209.0,"School":"Firebaugh High","Street":"1976 Morris Kyle Drive","City":"Firebaugh","Zip":"93622-9711","State":"CA","Latitude":36.84687,"Longitude":-120.44688},{"NUMTSTTAKR":0,"AVGSCR":null,"School":"Central Unified Alternative\/Opportunity","Street":"2698 North Brawley","City":"Fresno","Zip":"93722-5113","State":"CA","Latitude":36.7778,"Longitude":-119.86166},{"NUMTSTTAKR":504,"AVGSCR":1346.0,"School":"Central High East Campus","Street":"3535 North Cornelia Avenue","City":"Fresno","Zip":"93722-7020","State":"CA","Latitude":36.787333,"Longitude":-119.88262},{"NUMTSTTAKR":151,"AVGSCR":1313.0,"School":"Kerman High","Street":"205 South First Street","City":"Kerman","Zip":"93630-1001","State":"CA","Latitude":36.73374,"Longitude":-120.06473},{"NUMTSTTAKR":81,"AVGSCR":1164.0,"School":"Mendota High","Street":"1200 Belmont Avenue","City":"Mendota","Zip":"93640","State":"CA","Latitude":36.749314,"Longitude":-120.37703},{"NUMTSTTAKR":74,"AVGSCR":1177.0,"School":"Tranquillity High","Street":"6052 Juanche Street","City":"Tranquillity","Zip":"93668","State":"CA","Latitude":36.646873,"Longitude":-120.25363},{"NUMTSTTAKR":73,"AVGSCR":1551.0,"School":"Sierra High","Street":"33326 Lodge Road","City":"Tollhouse","Zip":"93667-9606","State":"CA","Latitude":37.039021,"Longitude":-119.46511},{"NUMTSTTAKR":68,"AVGSCR":1321.0,"School":"Riverdale High","Street":"3086 West Mount Whitney Avenue","City":"Riverdale","Zip":"93656-0726","State":"CA","Latitude":36.4309,"Longitude":-119.85365},{"NUMTSTTAKR":99,"AVGSCR":1246.0,"School":"Caruthers High","Street":"2580 West Tahoe Avenue","City":"Caruthers","Zip":"93609-0545","State":"CA","Latitude":36.538192,"Longitude":-119.83842},{"NUMTSTTAKR":0,"AVGSCR":null,"School":"Elm High","Street":"5865 South Clara Avenue","City":"Fresno","Zip":"93706-5805","State":"CA","Latitude":null,"Longitude":null},{"NUMTSTTAKR":0,"AVGSCR":null,"School":"W. E. B. DuBois Public Charter","Street":"2604 Martin Luther King Boulevard","City":"Fresno","Zip":"93706","State":"CA","Latitude":null,"Longitude":null},{"NUMTSTTAKR":143,"AVGSCR":1185.0,"School":"Washington High","Street":"6041 South Elm Avenue","City":"Fresno","Zip":"93706-6018","State":"CA","Latitude":null,"Longitude":null},{"NUMTSTTAKR":3,"AVGSCR":null,"School":"Princeton Junior-Senior High","Street":"473 State Street","City":"Princeton","Zip":"95970-0008","State":"CA","Latitude":39.40156,"Longitude":-122.01118},{"NUMTSTTAKR":0,"AVGSCR":null,"School":"Elk Creek Junior-Senior High","Street":"3430 County Road 309","City":"Elk Creek","Zip":"95939-9708","State":"CA","Latitude":39.606496,"Longitude":-122.53735},{"NUMTSTTAKR":40,"AVGSCR":1333.0,"School":"Willows High","Street":"203 North Murdock Avenue","City":"Willows","Zip":"95988-2706","State":"CA","Latitude":39.521839,"Longitude":-122.20103},{"NUMTSTTAKR":55,"AVGSCR":1401.0,"School":"Orland High","Street":"101 Shasta Street","City":"Orland","Zip":"95963-1426","State":"CA","Latitude":39.751044,"Longitude":-122.1902},{"NUMTSTTAKR":34,"AVGSCR":1438.0,"School":"Hamilton High","Street":"620 Canal Street","City":"Hamilton City","Zip":"95951-0488","State":"CA","Latitude":39.745455,"Longitude":-122.01903},{"NUMTSTTAKR":43,"AVGSCR":1696.0,"School":"Northcoast Preparatory and Performing Arts Academy","Street":"285 Bayside Road","City":"Arcata","Zip":"95521-6463","State":"CA","Latitude":40.865185,"Longitude":-124.07594},{"NUMTSTTAKR":17,"AVGSCR":1635.0,"School":"Six Rivers Charter High","Street":"1720 M Street","City":"Arcata","Zip":"95521-5741","State":"CA","Latitude":40.875694,"Longitude":-124.08994},{"NUMTSTTAKR":1,"AVGSCR":null,"School":"Laurel Tree Charter","Street":"4555 Valley West Boulevard","City":"Arcata","Zip":"95521-4683","State":"CA","Latitude":null,"Longitude":null},{"NUMTSTTAKR":112,"AVGSCR":1641.0,"School":"Arcata High","Street":"1720 M Street","City":"Arcata","Zip":"95521-5741","State":"CA","Latitude":40.875694,"Longitude":-124.08994},{"NUMTSTTAKR":77,"AVGSCR":1504.0,"School":"McKinleyville High","Street":"1300 Murray Road","City":"McKinleyville","Zip":"95519-3503","State":"CA","Latitude":40.956224,"Longitude":-124.11031},{"NUMTSTTAKR":24,"AVGSCR":1661.0,"School":"Academy of the Redwoods","Street":"7351 Tompkins Hill Road","City":"Eureka","Zip":"95501-9302","State":"CA","Latitude":40.698219,"Longitude":-124.19641},{"NUMTSTTAKR":71,"AVGSCR":1520.0,"School":"Fortuna Union High","Street":"379 12th Street","City":"Fortuna","Zip":"95540-2398","State":"CA","Latitude":40.595191,"Longitude":-124.15444},{"NUMTSTTAKR":21,"AVGSCR":1385.0,"School":"Hoopa Valley High","Street":"11400 State Highway 96","City":"Hoopa","Zip":"95546-9745","State":"CA","Latitude":41.207397,"Longitude":-123.66151},{"NUMTSTTAKR":0,"AVGSCR":null,"School":"Pacific View Charter","Street":"2937 Moore Avenue","City":"Eureka","Zip":"95501-3316","State":"CA","Latitude":40.78537,"Longitude":-124.13445},{"NUMTSTTAKR":8,"AVGSCR":null,"School":"Alder Grove Charter","Street":"714 F Street","City":"Eureka","Zip":"95501-0540","State":"CA","Latitude":40.775264,"Longitude":-124.18914},{"NUMTSTTAKR":15,"AVGSCR":1580.0,"School":"South Fork Junior - Senior High","Street":"6831 Avenue of the Giants","City":"Miranda","Zip":"95553-0188","State":"CA","Latitude":40.23697,"Longitude":-123.82416},{"NUMTSTTAKR":19,"AVGSCR":1421.0,"School":"Ferndale High","Street":"1231 Main Street","City":"Ferndale","Zip":"95536-9416","State":"CA","Latitude":40.584762,"Longitude":-124.25961},{"NUMTSTTAKR":1,"AVGSCR":null,"School":"Mattole Triple Junction High","Street":"29289 Chambers Road","City":"Petrolia","Zip":"95558","State":"CA","Latitude":40.243183,"Longitude":-124.15571},{"NUMTSTTAKR":4,"AVGSCR":null,"School":"Mattole Valley Charter (#159)","Street":"210 Lindley Road","City":"Petrolia","Zip":"95558-9534","State":"CA","Latitude":40.243183,"Longitude":-124.15571},{"NUMTSTTAKR":140,"AVGSCR":1541.0,"School":"Eureka Senior High","Street":"1915 J Street","City":"Eureka","Zip":"95501-3052","State":"CA","Latitude":40.790302,"Longitude":-124.15893},{"NUMTSTTAKR":215,"AVGSCR":1375.0,"School":"Brawley High","Street":"480 North Imperial Avenue","City":"Brawley","Zip":"92227-1625","State":"CA","Latitude":32.982855,"Longitude":-115.53494},{"NUMTSTTAKR":239,"AVGSCR":1313.0,"School":"Calexico High","Street":"1030 Encinas Avenue","City":"Calexico","Zip":"92231-2560","State":"CA","Latitude":32.677949,"Longitude":-115.48828},{"NUMTSTTAKR":31,"AVGSCR":1333.0,"School":"Calipatria High","Street":"601 West Main Street","City":"Calipatria","Zip":"92233-9787","State":"CA","Latitude":33.125698,"Longitude":-115.52595},{"NUMTSTTAKR":244,"AVGSCR":1436.0,"School":"Southwest High","Street":"2001 Ocotillo Drive","City":"El Centro","Zip":"92243-9451","State":"CA","Latitude":32.777359,"Longitude":-115.57838},{"NUMTSTTAKR":177,"AVGSCR":1447.0,"School":"Central Union High","Street":"1001 Brighton Avenue","City":"El Centro","Zip":"92243-3110","State":"CA","Latitude":32.789706,"Longitude":-115.56357},{"NUMTSTTAKR":1,"AVGSCR":null,"School":"Desert Oasis High (Continuation)","Street":"1302 South Third Street","City":"El Centro","Zip":"92243-6604","State":"CA","Latitude":32.782035,"Longitude":-115.55036},{"NUMTSTTAKR":0,"AVGSCR":null,"School":"Freedom Academy of Imperial Valley","Street":"522 East 8th Street","City":"Holtville","Zip":"92250","State":"CA","Latitude":null,"Longitude":null},{"NUMTSTTAKR":79,"AVGSCR":1340.0,"School":"Holtville High","Street":"755 Olive Avenue","City":"Holtville","Zip":"92250-1015","State":"CA","Latitude":32.81574,"Longitude":-115.38518},{"NUMTSTTAKR":133,"AVGSCR":1465.0,"School":"Imperial High","Street":"517 West Barioni Boulevard","City":"Imperial","Zip":"92251-1452","State":"CA","Latitude":32.847515,"Longitude":-115.57508},{"NUMTSTTAKR":7,"AVGSCR":null,"School":"San Pasqual Valley High","Street":"Route1, 676 Baseline Road","City":"Winterhaven","Zip":"92283","State":"CA","Latitude":32.752005,"Longitude":-114.59886},{"NUMTSTTAKR":0,"AVGSCR":null,"School":"YouthBuild Charter School of California","Street":"155 West Washington Boulevard, Suite 517","City":"Los Angeles","Zip":"90015-3582","State":"CA","Latitude":34.168573,"Longitude":-118.61524},{"NUMTSTTAKR":0,"AVGSCR":null,"School":"YouthBuild Charter School of California Central","Street":"155 West Washington Boulevard, Suite 517","City":"Los Angeles","Zip":"90015-3582","State":"CA","Latitude":34.168573,"Longitude":-118.61524},{"NUMTSTTAKR":11,"AVGSCR":1128.0,"School":"The Education Corps","Street":"2824 South Main Street","City":"Los Angeles","Zip":"90007-3334","State":"CA","Latitude":null,"Longitude":null},{"NUMTSTTAKR":0,"AVGSCR":null,"School":"College Bridge Academy","Street":"2824 South Main Street","City":"Los Angeles","Zip":"90007-3334","State":"CA","Latitude":null,"Longitude":null},{"NUMTSTTAKR":4,"AVGSCR":null,"School":"Big Pine High","Street":"500 South Main Street","City":"Big Pine","Zip":"93513-0908","State":"CA","Latitude":37.161792,"Longitude":-118.28898},{"NUMTSTTAKR":8,"AVGSCR":null,"School":"Lone Pine High","Street":"538 South Main Street","City":"Lone Pine","Zip":"93545","State":"CA","Latitude":36.602311,"Longitude":-118.06166},{"NUMTSTTAKR":2,"AVGSCR":null,"School":"Owens Valley High","Street":"202 South Clay Street","City":"Independence","Zip":"93526","State":"CA","Latitude":36.802511,"Longitude":-118.1967},{"NUMTSTTAKR":0,"AVGSCR":null,"School":"Bishop Independent Study","Street":"2001 Sugar Loaf Road","City":"Big Pine","Zip":"93513","State":"CA","Latitude":null,"Longitude":null},{"NUMTSTTAKR":91,"AVGSCR":1492.0,"School":"Bishop Union High","Street":"301 North Fowler Street","City":"Bishop","Zip":"93514-2609","State":"CA","Latitude":null,"Longitude":null},{"NUMTSTTAKR":61,"AVGSCR":1175.0,"School":"Paramount Academy","Street":"1942 Randolph Street","City":"Delano","Zip":"93215-1527","State":"CA","Latitude":35.782078,"Longitude":-119.23189},{"NUMTSTTAKR":1,"AVGSCR":null,"School":"Kern County Community","Street":"1300 17th Street City Centre","City":"Bakersfield","Zip":"93301","State":"CA","Latitude":35.3744,"Longitude":-119.01655},{"NUMTSTTAKR":17,"AVGSCR":1648.0,"School":"Valley Oaks Charter","Street":"3501 Chester Avenue","City":"Bakersfield","Zip":"93301-1629","State":"CA","Latitude":35.391471,"Longitude":-119.01887},{"NUMTSTTAKR":188,"AVGSCR":1362.0,"School":"Cesar E. Chavez High","Street":"800 Browning Road","City":"Delano","Zip":"93215-9494","State":"CA","Latitude":35.768629,"Longitude":-119.22314},{"NUMTSTTAKR":85,"AVGSCR":1338.0,"School":"Robert F. Kennedy High","Street":"1401 Hiett Avenue","City":"Delano","Zip":"93215","State":"CA","Latitude":35.77315,"Longitude":-119.26854},{"NUMTSTTAKR":144,"AVGSCR":1351.0,"School":"Delano High","Street":"1331 Cecil Avenue","City":"Delano","Zip":"93215-1410","State":"CA","Latitude":35.775883,"Longitude":-119.24043},{"NUMTSTTAKR":216,"AVGSCR":1339.0,"School":"Golden Valley High","Street":"801 Hosking Avenue","City":"Bakersfield","Zip":"93307-5818","State":"CA","Latitude":35.281248,"Longitude":-119.01005},{"NUMTSTTAKR":317,"AVGSCR":1493.0,"School":"Frontier High","Street":"6401 Allen Road","City":"Bakersfield","Zip":"93314-9250","State":"CA","Latitude":35.418009,"Longitude":-119.14547},{"NUMTSTTAKR":282,"AVGSCR":1409.0,"School":"Independence High","Street":"8001 Old River Road","City":"Bakersfield","Zip":"93311-9752","State":"CA","Latitude":35.28454,"Longitude":-119.10987},{"NUMTSTTAKR":205,"AVGSCR":1242.0,"School":"Mira Monte High","Street":"1800 South Fairfax Road","City":"Bakersfield","Zip":"93307-8520","State":"CA","Latitude":35.338756,"Longitude":-118.93198},{"NUMTSTTAKR":1,"AVGSCR":null,"School":"Vista West Continuation High","Street":"7115 Rosedale Highway","City":"Bakersfield","Zip":"93308-5845","State":"CA","Latitude":35.381891,"Longitude":-119.08237},{"NUMTSTTAKR":188,"AVGSCR":1266.0,"School":"Arvin High","Street":"900 Varsity Road","City":"Arvin","Zip":"93203-2421","State":"CA","Latitude":35.216374,"Longitude":-118.8348},{"NUMTSTTAKR":412,"AVGSCR":1601.0,"School":"Stockdale High","Street":"2800 Buena Vista Road","City":"Bakersfield","Zip":"93311-9791","State":"CA","Latitude":35.329166,"Longitude":-119.12782},{"NUMTSTTAKR":276,"AVGSCR":1519.0,"School":"Centennial High","Street":"8601 Hageman Road","City":"Bakersfield","Zip":"93312-3957","State":"CA","Latitude":35.399773,"Longitude":-119.09827},{"NUMTSTTAKR":288,"AVGSCR":1352.0,"School":"Ridgeview High","Street":"8501 Stine Road","City":"Bakersfield","Zip":"93313-9782","State":"CA","Latitude":35.277463,"Longitude":-119.05676},{"NUMTSTTAKR":0,"AVGSCR":null,"School":"Kern Workforce 2000 Academy","Street":"5801 Sundale Avenue","City":"Bakersfield","Zip":"93309-2924","State":"CA","Latitude":35.342527,"Longitude":-119.0653},{"NUMTSTTAKR":275,"AVGSCR":1564.0,"School":"Liberty High","Street":"925 Jewetta Avenue","City":"Bakersfield","Zip":"93312-4683","State":"CA","Latitude":35.363212,"Longitude":-119.12793},{"NUMTSTTAKR":211,"AVGSCR":1453.0,"School":"Bakersfield High","Street":"1241 G Street","City":"Bakersfield","Zip":"93301-5173","State":"CA","Latitude":35.369207,"Longitude":-119.02241},{"NUMTSTTAKR":232,"AVGSCR":1284.0,"School":"East Bakersfield High","Street":"2200 Quincy Street","City":"Bakersfield","Zip":"93306-4036","State":"CA","Latitude":35.379566,"Longitude":-118.9663},{"NUMTSTTAKR":151,"AVGSCR":1302.0,"School":"Foothill High","Street":"501 Park Drive","City":"Bakersfield","Zip":"93306-6017","State":"CA","Latitude":35.365334,"Longitude":-118.91861},{"NUMTSTTAKR":254,"AVGSCR":1398.0,"School":"Highland High","Street":"2900 Royal Scots Way","City":"Bakersfield","Zip":"93306-2819","State":"CA","Latitude":35.399217,"Longitude":-118.931},{"NUMTSTTAKR":23,"AVGSCR":1435.0,"School":"Kern Valley High","Street":"3340 Erskine Creek Road","City":"Lake Isabella","Zip":"93240-9609","State":"CA","Latitude":35.610152,"Longitude":-118.4655},{"NUMTSTTAKR":149,"AVGSCR":1370.0,"School":"North High","Street":"300 Galaxy Avenue","City":"Bakersfield","Zip":"93308-1722","State":"CA","Latitude":35.428102,"Longitude":-119.02606},{"NUMTSTTAKR":74,"AVGSCR":1367.0,"School":"Shafter High","Street":"526 Mannel Avenue","City":"Shafter","Zip":"93263-1810","State":"CA","Latitude":35.507556,"Longitude":-119.26926},{"NUMTSTTAKR":194,"AVGSCR":1255.0,"School":"South High","Street":"1101 Planz Road","City":"Bakersfield","Zip":"93304-6150","State":"CA","Latitude":35.32488,"Longitude":-119.01463},{"NUMTSTTAKR":186,"AVGSCR":1341.0,"School":"West High","Street":"1200 New Stine Road","City":"Bakersfield","Zip":"93309-3534","State":"CA","Latitude":35.344288,"Longitude":-119.06102},{"NUMTSTTAKR":9,"AVGSCR":null,"School":"California Virtual Academy High @ Maricopa","Street":"2360 Shasta Way, Suite A","City":"Simi Valley","Zip":"93065-1800","State":"CA","Latitude":null,"Longitude":null},{"NUMTSTTAKR":1,"AVGSCR":null,"School":"Maricopa High","Street":"955 Stanislaus Street","City":"Maricopa","Zip":"93252-8231","State":"CA","Latitude":35.055054,"Longitude":-119.40271},{"NUMTSTTAKR":48,"AVGSCR":1331.0,"School":"California City High","Street":"8567 Raven Way","City":"California City","Zip":"93505-1971","State":"CA","Latitude":35.137097,"Longitude":-117.97562},{"NUMTSTTAKR":9,"AVGSCR":null,"School":"Mojave Jr.\/Sr. High","Street":"15732 O Street","City":"Mojave","Zip":"93501-1751","State":"CA","Latitude":35.051465,"Longitude":-118.1672},{"NUMTSTTAKR":13,"AVGSCR":1423.0,"School":"Boron Junior-Senior High","Street":"26831 Prospect Street","City":"Boron","Zip":"93516-1539","State":"CA","Latitude":35.004559,"Longitude":-117.65196},{"NUMTSTTAKR":84,"AVGSCR":1510.0,"School":"Desert Junior-Senior High","Street":"1575 Payne Avenue","City":"Edwards","Zip":"93523-1301","State":"CA","Latitude":34.922617,"Longitude":-117.94685},{"NUMTSTTAKR":0,"AVGSCR":null,"School":"California Pacific Charter School of Kern","Street":"840 Apollo Street, Suite 222","City":"El Segundo","Zip":"90245","State":"CA","Latitude":null,"Longitude":null},{"NUMTSTTAKR":0,"AVGSCR":null,"School":"Abraham Lincoln Alternative","Street":"3082 Glendower Street","City":"Rosamond","Zip":"93560-7688","State":"CA","Latitude":34.865065,"Longitude":-118.16927},{"NUMTSTTAKR":48,"AVGSCR":1380.0,"School":"Rosamond High","Street":"2925 Rosamond Boulevard","City":"Rosamond","Zip":"93560-0640","State":"CA","Latitude":34.864137,"Longitude":-118.18402},{"NUMTSTTAKR":59,"AVGSCR":1377.0,"School":"Taft Union High","Street":"701 Wildcat Way","City":"Taft","Zip":"93268-2319","State":"CA","Latitude":35.147096,"Longitude":-119.46054},{"NUMTSTTAKR":0,"AVGSCR":null,"School":"Abernathy Collegiate Charter","Street":"711 Anita Drive AG. ENTRANCE","City":"Tehachapi","Zip":"93561","State":"CA","Latitude":null,"Longitude":null},{"NUMTSTTAKR":152,"AVGSCR":1557.0,"School":"Tehachapi High","Street":"801 South Dennison Road","City":"Tehachapi","Zip":"93561-1524","State":"CA","Latitude":35.125257,"Longitude":-118.43211},{"NUMTSTTAKR":105,"AVGSCR":1327.0,"School":"Wasco High","Street":"1900 Seventh Street","City":"Wasco","Zip":"93280-0250","State":"CA","Latitude":35.594297,"Longitude":-119.3471},{"NUMTSTTAKR":1,"AVGSCR":null,"School":"Mesquite Continuation High","Street":"140 West Drummond","City":"Ridgecrest","Zip":"93555-3118","State":"CA","Latitude":35.637193,"Longitude":-117.67072},{"NUMTSTTAKR":138,"AVGSCR":1588.0,"School":"Burroughs High","Street":"500 East French Street","City":"Ridgecrest","Zip":"93555-3832","State":"CA","Latitude":35.630939,"Longitude":-117.66209},{"NUMTSTTAKR":0,"AVGSCR":null,"School":"McFarland Independent","Street":"599 Fifth Street","City":"McFarland","Zip":"93250-1174","State":"CA","Latitude":35.680158,"Longitude":-119.23395},{"NUMTSTTAKR":144,"AVGSCR":1229.0,"School":"McFarland High","Street":"259 West Sherwood Avenue","City":"McFarland","Zip":"93250-1519","State":"CA","Latitude":35.674376,"Longitude":-119.22335},{"NUMTSTTAKR":25,"AVGSCR":1465.0,"School":"Frazier Mountain High","Street":"700 Falcon Way","City":"Lebec","Zip":"93243-0876","State":"CA","Latitude":34.806899,"Longitude":-118.88513},{"NUMTSTTAKR":2,"AVGSCR":null,"School":"Crossroads Charter","Street":"418 West 8th Street","City":"Hanford","Zip":"93230-4536","State":"CA","Latitude":36.343626,"Longitude":-119.63793},{"NUMTSTTAKR":6,"AVGSCR":null,"School":"California Virtual Academy @ Kings","Street":"2360 Shasta Way, Unit A","City":"Simi Valley","Zip":"93065-1800","State":"CA","Latitude":34.276459,"Longitude":-118.78865},{"NUMTSTTAKR":0,"AVGSCR":null,"School":"National University Academy, Armona","Street":"2030 University Drive","City":"Vista","Zip":"92083-7736","State":"CA","Latitude":null,"Longitude":null},{"NUMTSTTAKR":0,"AVGSCR":null,"School":"California Pacific Charter School of Central California","Street":"1200 Quail Street #175","City":"Newport Beach","Zip":"92660","State":"CA","Latitude":33.928955,"Longitude":-118.20035},{"NUMTSTTAKR":114,"AVGSCR":1328.0,"School":"Corcoran High","Street":"1100 Letts Avenue","City":"Corcoran","Zip":"93212-2520","State":"CA","Latitude":36.097724,"Longitude":-119.56795},{"NUMTSTTAKR":95,"AVGSCR":1434.0,"School":"Sierra Pacific High","Street":"1259 North 13th Avenue","City":"Hanford","Zip":"93230-9219","State":"CA","Latitude":36.33721,"Longitude":-119.68993},{"NUMTSTTAKR":151,"AVGSCR":1344.0,"School":"Hanford West High","Street":"1150 West Lacey Boulevard","City":"Hanford","Zip":"93230-3575","State":"CA","Latitude":36.32817,"Longitude":-119.66102},{"NUMTSTTAKR":103,"AVGSCR":1359.0,"School":"Hanford High","Street":"120 East Grangeville Boulevard","City":"Hanford","Zip":"93230-3067","State":"CA","Latitude":36.343014,"Longitude":-119.64435},{"NUMTSTTAKR":52,"AVGSCR":1459.0,"School":"Lemoore Middle College High","Street":"555 College Avenue","City":"Lemoore","Zip":"93245-9248","State":"CA","Latitude":36.29197,"Longitude":-119.82273},{"NUMTSTTAKR":144,"AVGSCR":1415.0,"School":"Lemoore High","Street":"101 East Bush Street","City":"Lemoore","Zip":"93245-3601","State":"CA","Latitude":36.297958,"Longitude":-119.77945},{"NUMTSTTAKR":93,"AVGSCR":1126.0,"School":"Avenal High","Street":"601 Mariposa Street","City":"Avenal","Zip":"93204-1413","State":"CA","Latitude":36.009393,"Longitude":-120.12958},{"NUMTSTTAKR":50,"AVGSCR":1457.0,"School":"Kelseyville High","Street":"5480 Main Street","City":"Kelseyville","Zip":"95451-8943","State":"CA","Latitude":38.972472,"Longitude":-122.83022},{"NUMTSTTAKR":0,"AVGSCR":null,"School":"Blue Heron","Street":"15850 Dam Road","City":"Clearlake","Zip":"95422-9359","State":"CA","Latitude":38.910344,"Longitude":-122.60752},{"NUMTSTTAKR":0,"AVGSCR":null,"School":"Richard H. Lewis Alternative","Street":"15850 Dam Rd Ex","City":"Clearlake","Zip":"95422","State":"CA","Latitude":38.912305,"Longitude":-122.60923},{"NUMTSTTAKR":32,"AVGSCR":1417.0,"School":"Lower Lake High","Street":"9430 A Lake Street","City":"Lower Lake","Zip":"95457-0799","State":"CA","Latitude":38.914767,"Longitude":-122.60778},{"NUMTSTTAKR":1,"AVGSCR":null,"School":"Lakeport Alternative (Home School)","Street":"100 Lange Street","City":"Lakeport","Zip":"95453-3297","State":"CA","Latitude":39.059316,"Longitude":-122.91336},{"NUMTSTTAKR":44,"AVGSCR":1566.0,"School":"Clear Lake High","Street":"350 Lange Street","City":"Lakeport","Zip":"95453-3247","State":"CA","Latitude":39.059314,"Longitude":-122.91556},{"NUMTSTTAKR":49,"AVGSCR":1499.0,"School":"Middletown High","Street":"20932 Big Canyon Road","City":"Middletown","Zip":"95461-0338","State":"CA","Latitude":38.761793,"Longitude":-122.61722},{"NUMTSTTAKR":29,"AVGSCR":1343.0,"School":"Upper Lake High","Street":"675 Clover Valley Road","City":"Upper Lake","Zip":"95485-9220","State":"CA","Latitude":39.164943,"Longitude":-122.9011},{"NUMTSTTAKR":6,"AVGSCR":null,"School":"Big Valley Jr. Sr. High","Street":"400 Bridge Street","City":"Bieber","Zip":"96009-0157","State":"CA","Latitude":41.121625,"Longitude":-121.13943},{"NUMTSTTAKR":98,"AVGSCR":1479.0,"School":"Lassen High","Street":"1110 Main Street","City":"Susanville","Zip":"96130-4421","State":"CA","Latitude":40.417312,"Longitude":-120.65664},{"NUMTSTTAKR":0,"AVGSCR":null,"School":"Juniper Ridge Virtual Academy Charter","Street":"709-855 Termo Grasshopper Road","City":"Termo","Zip":"96123-7126","State":"CA","Latitude":40.839094,"Longitude":-120.5131},{"NUMTSTTAKR":0,"AVGSCR":null,"School":"New Day Academy","Street":"709-855 Termo Grasshopper Road","City":"Termo","Zip":"96123-7126","State":"CA","Latitude":40.838755,"Longitude":-120.51302},{"NUMTSTTAKR":0,"AVGSCR":null,"School":"Long Valley Charter","Street":"436-965 Susan Drive","City":"Doyle","Zip":"96109-0007","State":"CA","Latitude":null,"Longitude":null},{"NUMTSTTAKR":0,"AVGSCR":null,"School":"Westwood Charter","Street":"313 Birch Street","City":"Westwood","Zip":"96137","State":"CA","Latitude":40.304145,"Longitude":-121.00812},{"NUMTSTTAKR":7,"AVGSCR":null,"School":"Westwood High","Street":"Fourth and Greenwood Streets","City":"Westwood","Zip":"96137-1510","State":"CA","Latitude":40.304145,"Longitude":-121.00812},{"NUMTSTTAKR":0,"AVGSCR":null,"School":"Mt. Lassen Charter","Street":"100 David S. Hall Street","City":"Herlong","Zip":"96113","State":"CA","Latitude":null,"Longitude":null},{"NUMTSTTAKR":5,"AVGSCR":null,"School":"Herlong High","Street":"200 DS Hall","City":"Herlong","Zip":"96113","State":"CA","Latitude":40.139083,"Longitude":-120.14358},{"NUMTSTTAKR":10,"AVGSCR":null,"School":"Opportunities Unlimited Charter High","Street":"5100 South Broadway Avenue","City":"Los Angeles","Zip":"90037","State":"CA","Latitude":33.940772,"Longitude":-118.29227},{"NUMTSTTAKR":77,"AVGSCR":1148.0,"School":"Academia Avance Charter","Street":"115 North Avenue 53","City":"Highland Park","Zip":"90042-4005","State":"CA","Latitude":null,"Longitude":null},{"NUMTSTTAKR":74,"AVGSCR":1259.0,"School":"Los Angeles International Charter High","Street":"625 Coleman Avenue","City":"Los Angeles","Zip":"90042-4903","State":"CA","Latitude":34.102605,"Longitude":-118.18326},{"NUMTSTTAKR":0,"AVGSCR":null,"School":"Westchester Secondary Charter","Street":"8820 Sepulveda Eastway","City":"Los Angeles","Zip":"90045-4811","State":"CA","Latitude":null,"Longitude":null},{"NUMTSTTAKR":0,"AVGSCR":null,"School":"Optimist Charter","Street":"6957 North Figueroa Street","City":"Los Angeles","Zip":"90042-1245","State":"CA","Latitude":null,"Longitude":null},{"NUMTSTTAKR":194,"AVGSCR":1629.0,"School":"L.A. County High School for the Arts","Street":"5151 State University Drive","City":"Los Angeles","Zip":"90032-4221","State":"CA","Latitude":34.062345,"Longitude":-118.17158},{"NUMTSTTAKR":0,"AVGSCR":null,"School":"Alternative Opportunity Programs","Street":"12830 Columbia Way","City":"Downey","Zip":"90242-4720","State":"CA","Latitude":33.915951,"Longitude":-118.12875},{"NUMTSTTAKR":160,"AVGSCR":1519.0,"School":"International Polytechnic High","Street":"3801 West Temple Avenue, Building 128-16","City":"Pomona","Zip":"91768-2557","State":"CA","Latitude":34.050394,"Longitude":-117.82071},{"NUMTSTTAKR":5,"AVGSCR":null,"School":"Soledad Enrichment Action Charter High","Street":"222 North Virgil Avenue","City":"Los Angeles","Zip":"90004-3622","State":"CA","Latitude":34.075608,"Longitude":-118.28652},{"NUMTSTTAKR":540,"AVGSCR":1669.0,"School":"Cerritos High","Street":"12500 East 183rd Street","City":"Cerritos","Zip":"90703-8450","State":"CA","Latitude":33.865754,"Longitude":-118.06593},{"NUMTSTTAKR":185,"AVGSCR":1381.0,"School":"Artesia High","Street":"12108 East Del Amo Boulevard","City":"Lakewood","Zip":"90715-1516","State":"CA","Latitude":33.845987,"Longitude":-118.0744},{"NUMTSTTAKR":204,"AVGSCR":1960.0,"School":"Whitney (Gretchen) High","Street":"16800 Shoemaker Avenue","City":"Cerritos","Zip":"90703-1244","State":"CA","Latitude":33.878996,"Longitude":-118.05514},{"NUMTSTTAKR":308,"AVGSCR":1490.0,"School":"Gahr (Richard) High","Street":"11111 Artesia Boulevard","City":"Cerritos","Zip":"90703-2533","State":"CA","Latitude":33.873082,"Longitude":-118.09725},{"NUMTSTTAKR":0,"AVGSCR":null,"School":"ABC Secondary (Alternative)","Street":"16534 South Carmenita Road","City":"Cerritos","Zip":"90703-2301","State":"CA","Latitude":33.881542,"Longitude":-118.04639},{"NUMTSTTAKR":374,"AVGSCR":1349.0,"School":"William J. (Pete) Knight High","Street":"37423 70th Street East","City":"Palmdale","Zip":"93552-4800","State":"CA","Latitude":34.561431,"Longitude":-118.00826},{"NUMTSTTAKR":374,"AVGSCR":1247.0,"School":"Eastside High","Street":"3200 East Avenue J-8","City":"Lancaster","Zip":"93535-5827","State":"CA","Latitude":34.682531,"Longitude":-118.07325},{"NUMTSTTAKR":113,"AVGSCR":1546.0,"School":"SOAR High (Students On Academic Rise)","Street":"3041 West Avenue K","City":"Lancaster","Zip":"93536-5426","State":"CA","Latitude":34.674952,"Longitude":-118.18455},{"NUMTSTTAKR":7,"AVGSCR":null,"School":"Los Angeles County Online High","Street":"2600 Foothill Blvd, #301","City":"La Crescenta","Zip":"91214-3588","State":"CA","Latitude":34.689026,"Longitude":-118.15267},{"NUMTSTTAKR":1,"AVGSCR":null,"School":"Academies of the Antelope Valley","Street":"6300 West Avenue L","City":"Quartz Hill","Zip":"93536-4540","State":"CA","Latitude":null,"Longitude":null},{"NUMTSTTAKR":128,"AVGSCR":1234.0,"School":"Antelope Valley High","Street":"44900 North Division Street","City":"Lancaster","Zip":"93535-2538","State":"CA","Latitude":34.699103,"Longitude":-118.13038},{"NUMTSTTAKR":2,"AVGSCR":null,"School":"Desert Winds Continuation High","Street":"45030 Third Street East","City":"Lancaster","Zip":"93535-2503","State":"CA","Latitude":34.700987,"Longitude":-118.12596},{"NUMTSTTAKR":217,"AVGSCR":1320.0,"School":"Palmdale High","Street":"2137 East Avenue R","City":"Palmdale","Zip":"93550-5415","State":"CA","Latitude":34.572743,"Longitude":-118.09194},{"NUMTSTTAKR":403,"AVGSCR":1517.0,"School":"Quartz Hill High","Street":"6040 West Avenue L","City":"Quartz Hill","Zip":"93536-4501","State":"CA","Latitude":34.66014,"Longitude":-118.24003},{"NUMTSTTAKR":333,"AVGSCR":1424.0,"School":"Highland High","Street":"39055 25th Street West","City":"Palmdale","Zip":"93551-4164","State":"CA","Latitude":34.58522,"Longitude":-118.17397},{"NUMTSTTAKR":136,"AVGSCR":1261.0,"School":"Littlerock High","Street":"10833 East Avenue R","City":"Littlerock","Zip":"93543-4106","State":"CA","Latitude":34.572689,"Longitude":-117.93595},{"NUMTSTTAKR":303,"AVGSCR":1392.0,"School":"Lancaster High","Street":"44701 32nd Street West","City":"Lancaster","Zip":"93536-7023","State":"CA","Latitude":34.694851,"Longitude":-118.18832},{"NUMTSTTAKR":5,"AVGSCR":null,"School":"Desert Sands Charter","Street":"44130 20th Street West","City":"Lancaster","Zip":"93534-4045","State":"CA","Latitude":34.579561,"Longitude":-118.07514},{"NUMTSTTAKR":970,"AVGSCR":1787.0,"School":"Arcadia High","Street":"180 Campus Drive","City":"Arcadia","Zip":"91007-6958","State":"CA","Latitude":34.130658,"Longitude":-118.03865},{"NUMTSTTAKR":1,"AVGSCR":null,"School":"Rancho Learning Center (Alternative)","Street":"150 South Third Avenue","City":"Arcadia","Zip":"91006-3703","State":"CA","Latitude":34.138027,"Longitude":-118.02355},{"NUMTSTTAKR":208,"AVGSCR":1335.0,"School":"Azusa High","Street":"240 North Cerritos Avenue","City":"Azusa","Zip":"91702-3733","State":"CA","Latitude":34.124513,"Longitude":-117.89779},{"NUMTSTTAKR":184,"AVGSCR":1344.0,"School":"Gladstone High","Street":"1340 North Enid","City":"Covina","Zip":"91722-1214","State":"CA","Latitude":34.104988,"Longitude":-117.91208},{"NUMTSTTAKR":54,"AVGSCR":1284.0,"School":"Opportunities For Learning - Baldwin Park II","Street":"320 North Halstead Street Suite 220","City":"Pasadena","Zip":"91107-3147","State":"CA","Latitude":34.078438,"Longitude":-117.99498},{"NUMTSTTAKR":228,"AVGSCR":1386.0,"School":"Baldwin Park High","Street":"3900 North Puente Avenue","City":"Baldwin Park","Zip":"91706-4428","State":"CA","Latitude":34.083315,"Longitude":-117.94998},{"NUMTSTTAKR":291,"AVGSCR":1380.0,"School":"Sierra Vista High","Street":"3600 North Frazier Street","City":"Baldwin Park","Zip":"91706-3897","State":"CA","Latitude":34.076709,"Longitude":-117.98056},{"NUMTSTTAKR":68,"AVGSCR":1338.0,"School":"Opportunities for Learning - Baldwin Park","Street":"320 North Halstead Street Suite 220","City":"Pasadena","Zip":"91107-3147","State":"CA","Latitude":34.078438,"Longitude":-117.99498},{"NUMTSTTAKR":162,"AVGSCR":1301.0,"School":"Bassett Senior High","Street":"755 Ardilla Avenue","City":"La Puente","Zip":"91746-2163","State":"CA","Latitude":34.051458,"Longitude":-117.97639},{"NUMTSTTAKR":196,"AVGSCR":1407.0,"School":"Bellflower High","Street":"15301 South McNab Avenue","City":"Bellflower","Zip":"90706-4101","State":"CA","Latitude":33.892928,"Longitude":-118.11518},{"NUMTSTTAKR":300,"AVGSCR":1498.0,"School":"Mayfair High","Street":"6000 North Woodruff Avenue","City":"Lakewood","Zip":"90713-1124","State":"CA","Latitude":33.863691,"Longitude":-118.11408},{"NUMTSTTAKR":2,"AVGSCR":null,"School":"Somerset Continuation High","Street":"9242 East Laurel Street","City":"Bellflower","Zip":"90706-7607","State":"CA","Latitude":33.882894,"Longitude":-118.13754},{"NUMTSTTAKR":347,"AVGSCR":1781.0,"School":"Beverly Hills High","Street":"241 Moreno Drive","City":"Beverly Hills","Zip":"90212-3639","State":"CA","Latitude":34.061218,"Longitude":-118.41121},{"NUMTSTTAKR":369,"AVGSCR":1530.0,"School":"Bonita High","Street":"3102 D Street","City":"La Verne","Zip":"91750-4023","State":"CA","Latitude":34.107815,"Longitude":-117.76733},{"NUMTSTTAKR":230,"AVGSCR":1481.0,"School":"San Dimas High","Street":"800 West Covina Boulevard","City":"San Dimas","Zip":"91773-1473","State":"CA","Latitude":34.099335,"Longitude":-117.82293},{"NUMTSTTAKR":0,"AVGSCR":null,"School":"Vista (Alternative)","Street":"127 West Allen Avenue","City":"San Dimas","Zip":"91773-1473","State":"CA","Latitude":34.117565,"Longitude":-117.80767},{"NUMTSTTAKR":474,"AVGSCR":1584.0,"School":"Burbank High","Street":"902 North Third Street","City":"Burbank","Zip":"91502-1018","State":"CA","Latitude":34.188823,"Longitude":-118.31536},{"NUMTSTTAKR":428,"AVGSCR":1566.0,"School":"Burroughs High","Street":"1920 Clark Avenue","City":"Burbank","Zip":"91506-1918","State":"CA","Latitude":34.170482,"Longitude":-118.32715},{"NUMTSTTAKR":1,"AVGSCR":null,"School":"Monterey High (Continuation)","Street":"1915 Monterey Avenue","City":"Burbank","Zip":"91506-1107","State":"CA","Latitude":34.186332,"Longitude":-118.33173},{"NUMTSTTAKR":29,"AVGSCR":1414.0,"School":"Options for Youth-Burbank Charter","Street":"1610 West Burbank Boulevard","City":"Burbank","Zip":"91506-1311","State":"CA","Latitude":34.168004,"Longitude":-118.32354},{"NUMTSTTAKR":0,"AVGSCR":null,"School":"Centinela Valley Independent Study","Street":"4409 Redondo Beach Boulevard","City":"Lawndale","Zip":"90260-3717","State":"CA","Latitude":33.894668,"Longitude":-118.36506},{"NUMTSTTAKR":209,"AVGSCR":1258.0,"School":"Hawthorne High","Street":"4859 West El Segundo Boulevard","City":"Hawthorne","Zip":"90250-4204","State":"CA","Latitude":33.916429,"Longitude":-118.3629},{"NUMTSTTAKR":399,"AVGSCR":1321.0,"School":"Lawndale High","Street":"14901 South Inglewood Avenue","City":"Lawndale","Zip":"90260-1251","State":"CA","Latitude":33.89637,"Longitude":-118.36134},{"NUMTSTTAKR":189,"AVGSCR":1199.0,"School":"Leuzinger High","Street":"4118 West Rosecrans Avenue","City":"Lawndale","Zip":"90260-1601","State":"CA","Latitude":33.901835,"Longitude":-118.35273},{"NUMTSTTAKR":381,"AVGSCR":1427.0,"School":"Charter Oak High","Street":"1430 East Covina Boulevard","City":"Covina","Zip":"91724-1651","State":"CA","Latitude":34.099393,"Longitude":-117.86137},{"NUMTSTTAKR":0,"AVGSCR":null,"School":"Oak Knoll Alternative","Street":"1505 South Sunflower Ave","City":"Glendora","Zip":"91740-5839","State":"CA","Latitude":34.112553,"Longitude":-117.84639},{"NUMTSTTAKR":2,"AVGSCR":null,"School":"San Antonio High (Continuation)","Street":"125 West San Jose Avenue","City":"Claremont","Zip":"91711-5205","State":"CA","Latitude":34.083195,"Longitude":-117.71552},{"NUMTSTTAKR":604,"AVGSCR":1561.0,"School":"Claremont High","Street":"1601 North Indian Hill Boulevard","City":"Claremont","Zip":"91711-2643","State":"CA","Latitude":34.112941,"Longitude":-117.72038},{"NUMTSTTAKR":188,"AVGSCR":1383.0,"School":"Covina High","Street":"463 South Hollenbeck Avenue","City":"Covina","Zip":"91723-2955","State":"CA","Latitude":34.081554,"Longitude":-117.89898},{"NUMTSTTAKR":241,"AVGSCR":1332.0,"School":"Northview High","Street":"1016 West Cypress Avenue","City":"Covina","Zip":"91722-3145","State":"CA","Latitude":34.0939,"Longitude":-117.91107},{"NUMTSTTAKR":358,"AVGSCR":1449.0,"School":"South Hills High","Street":"645 South Barranca Street","City":"West Covina","Zip":"91723-0269","State":"CA","Latitude":34.078343,"Longitude":-117.88133},{"NUMTSTTAKR":448,"AVGSCR":1544.0,"School":"Culver City High","Street":"4401 Elenda Street","City":"Culver City","Zip":"90230-4101","State":"CA","Latitude":34.007696,"Longitude":-118.40205},{"NUMTSTTAKR":585,"AVGSCR":1389.0,"School":"Downey High","Street":"11040 Brookshire Avenue","City":"Downey","Zip":"90241-3816","State":"CA","Latitude":33.938407,"Longitude":-118.1279},{"NUMTSTTAKR":673,"AVGSCR":1410.0,"School":"Warren High","Street":"8141 De Palma Street","City":"Downey","Zip":"90241-5102","State":"CA","Latitude":33.934826,"Longitude":-118.1407},{"NUMTSTTAKR":0,"AVGSCR":null,"School":"Opportunities for Learning - Duarte","Street":"1008 Huntington Drive","City":"Duarte","Zip":"91010-2449","State":"CA","Latitude":null,"Longitude":null},{"NUMTSTTAKR":173,"AVGSCR":1373.0,"School":"Duarte High","Street":"1565 East Central Avenue","City":"Duarte","Zip":"91010-2505","State":"CA","Latitude":34.136034,"Longitude":-117.97128},{"NUMTSTTAKR":448,"AVGSCR":1400.0,"School":"Arroyo High","Street":"4921 North Cedar Avenue","City":"El Monte","Zip":"91732-1099","State":"CA","Latitude":34.093676,"Longitude":-118.02056},{"NUMTSTTAKR":310,"AVGSCR":1352.0,"School":"El Monte High","Street":"3048 North Tyler Avenue","City":"El Monte","Zip":"91731-3365","State":"CA","Latitude":34.064411,"Longitude":-118.03473},{"NUMTSTTAKR":160,"AVGSCR":1304.0,"School":"Mountain View High","Street":"2900 Parkway Drive","City":"El Monte","Zip":"91732-3695","State":"CA","Latitude":34.054344,"Longitude":-118.01233},{"NUMTSTTAKR":397,"AVGSCR":1466.0,"School":"Rosemead High","Street":"9063 East Mission Drive","City":"Rosemead","Zip":"91770-4411","State":"CA","Latitude":34.083767,"Longitude":-118.07157},{"NUMTSTTAKR":260,"AVGSCR":1329.0,"School":"South El Monte High","Street":"1001 Durfee Avenue","City":"South El Monte","Zip":"91733-4409","State":"CA","Latitude":34.035147,"Longitude":-118.04508},{"NUMTSTTAKR":499,"AVGSCR":1333.0,"School":"El Rancho High","Street":"6501 South Passons Boulevard","City":"Pico Rivera","Zip":"90660-3373","State":"CA","Latitude":33.984133,"Longitude":-118.08693},{"NUMTSTTAKR":1,"AVGSCR":null,"School":"Arena High (Continuation)","Street":"630 Arena Street","City":"El Segundo","Zip":"90245-3036","State":"CA","Latitude":33.923914,"Longitude":-118.41233},{"NUMTSTTAKR":276,"AVGSCR":1616.0,"School":"El Segundo High","Street":"640 Main Street","City":"El Segundo","Zip":"90245-3057","State":"CA","Latitude":33.92421,"Longitude":-118.41591},{"NUMTSTTAKR":719,"AVGSCR":1721.0,"School":"Crescenta Valley High","Street":"2900 Community Avenue","City":"La Crescenta","Zip":"91214-3471","State":"CA","Latitude":34.223692,"Longitude":-118.24218},{"NUMTSTTAKR":297,"AVGSCR":1558.0,"School":"Glendale High","Street":"1440 East Broadway","City":"Glendale","Zip":"91205-1503","State":"CA","Latitude":34.145269,"Longitude":-118.23258},{"NUMTSTTAKR":181,"AVGSCR":1607.0,"School":"Herbert Hoover High","Street":"651 Glenwood Road","City":"Glendale","Zip":"91202-1552","State":"CA","Latitude":34.166115,"Longitude":-118.27022},{"NUMTSTTAKR":2,"AVGSCR":null,"School":"Verdugo Academy","Street":"4717 Dunsmore Avenue","City":"La Crescenta","Zip":"91214-1814","State":"CA","Latitude":34.237468,"Longitude":-118.26213},{"NUMTSTTAKR":223,"AVGSCR":1667.0,"School":"Anderson W. Clark Magnet High","Street":"4747 New York Avenue","City":"La Crescenta","Zip":"91214-1841","State":"CA","Latitude":34.236926,"Longitude":-118.25302},{"NUMTSTTAKR":465,"AVGSCR":1605.0,"School":"Glendora High","Street":"1600 East Foothill Boulevard","City":"Glendora","Zip":"91741-3024","State":"CA","Latitude":34.134297,"Longitude":-117.83548},{"NUMTSTTAKR":1,"AVGSCR":null,"School":"Whitcomb Continuation High","Street":"350 West Mauna Loa Avenue","City":"Glendora","Zip":"91740-4399","State":"CA","Latitude":34.125049,"Longitude":-117.86842},{"NUMTSTTAKR":33,"AVGSCR":1467.0,"School":"Gorman Learning Center","Street":"1826 Orange Tree Lane","City":"Redlands","Zip":"92374-2821","State":"CA","Latitude":34.792965,"Longitude":-118.8533},{"NUMTSTTAKR":134,"AVGSCR":1497.0,"School":"Hawthorne Math and Science Academy","Street":"4467 West Broadway","City":"Hawthorne","Zip":"90250-3819","State":"CA","Latitude":33.9206,"Longitude":-118.35403},{"NUMTSTTAKR":37,"AVGSCR":1346.0,"School":"Opportunities for Learning - Hermosa Beach","Street":"13613 Hawthorne Avenue","City":"Hawthorne","Zip":"90250","State":"CA","Latitude":34.206174,"Longitude":-118.2041},{"NUMTSTTAKR":0,"AVGSCR":null,"School":"Options for Youth-Hermosa Beach, Inc.","Street":"6628 Van Nuys Boulevard","City":"Van Nuys","Zip":"91405","State":"CA","Latitude":34.14258,"Longitude":-118.14192},{"NUMTSTTAKR":162,"AVGSCR":1129.0,"School":"Inglewood High","Street":"231 South Grevillea Avenue","City":"Inglewood","Zip":"90301-2323","State":"CA","Latitude":33.961271,"Longitude":-118.35504},{"NUMTSTTAKR":164,"AVGSCR":1111.0,"School":"Morningside High","Street":"10500 South Yukon Avenue","City":"Inglewood","Zip":"90303-2003","State":"CA","Latitude":33.940763,"Longitude":-118.33514},{"NUMTSTTAKR":157,"AVGSCR":1311.0,"School":"City Honors College Preparatory Academy","Street":"120 W. Regent Street","City":"Inglewood","Zip":"90301-1225","State":"CA","Latitude":33.959083,"Longitude":-118.35625},{"NUMTSTTAKR":132,"AVGSCR":1338.0,"School":"Animo Inglewood Charter High","Street":"3425 West Manchester Boulevard","City":"Inglewood","Zip":"90305-2101","State":"CA","Latitude":null,"Longitude":null},{"NUMTSTTAKR":0,"AVGSCR":null,"School":"Parent (Frank D.) Elementary","Street":"5354 West 64th Street","City":"Inglewood","Zip":"90302-1042","State":"CA","Latitude":33.982747,"Longitude":-118.37458},{"NUMTSTTAKR":410,"AVGSCR":1804.0,"School":"La Canada High","Street":"4463 Oak Grove Drive","City":"La Canada","Zip":"91011-3738","State":"CA","Latitude":34.188081,"Longitude":-118.17897},{"NUMTSTTAKR":390,"AVGSCR":1731.0,"School":"Agoura High","Street":"28545 West Driver Avenue","City":"Agoura","Zip":"91301-3335","State":"CA","Latitude":34.149746,"Longitude":-118.74799},{"NUMTSTTAKR":338,"AVGSCR":1673.0,"School":"Calabasas High","Street":"22855 West Mulholland Highway","City":"Calabasas","Zip":"91302-2047","State":"CA","Latitude":34.138145,"Longitude":-118.6234},{"NUMTSTTAKR":209,"AVGSCR":1323.0,"School":"Environmental Charter High","Street":"16315 Grevillea Avenue","City":"Lawndale","Zip":"90260-2858","State":"CA","Latitude":33.882548,"Longitude":-118.35484},{"NUMTSTTAKR":174,"AVGSCR":1301.0,"School":"Lennox Mathematics, Science and Technology Academy","Street":"11036 Hawthorne Boulevard","City":"Lennox","Zip":"90304-2316","State":"CA","Latitude":33.935304,"Longitude":-118.35194},{"NUMTSTTAKR":187,"AVGSCR":1311.0,"School":"Animo Leadership High","Street":"11044 South Freeman Avenue","City":"Inglewood","Zip":"90301-2902","State":"CA","Latitude":33.952877,"Longitude":-118.3759},{"NUMTSTTAKR":0,"AVGSCR":null,"School":"Beach High-Intensive Learning Program","Street":"3701 East Willow Street","City":"Long Beach","Zip":"90815-1732","State":"CA","Latitude":null,"Longitude":null},{"NUMTSTTAKR":0,"AVGSCR":null,"School":"Ernest S. McBride, Sr. High","Street":"7025 East Parkcrest Street","City":"Long Beach","Zip":"90808-2319","State":"CA","Latitude":null,"Longitude":null},{"NUMTSTTAKR":42,"AVGSCR":1400.0,"School":"Avalon K-12","Street":"200 Falls Canyon Road","City":"Santa Catalina","Zip":"90704-0557","State":"CA","Latitude":33.340032,"Longitude":-118.33647},{"NUMTSTTAKR":320,"AVGSCR":1209.0,"School":"Jordan High","Street":"6500 Atlantic Avenue","City":"Long Beach","Zip":"90805-2304","State":"CA","Latitude":33.872497,"Longitude":-118.18595},{"NUMTSTTAKR":496,"AVGSCR":1404.0,"School":"Lakewood High","Street":"4400 Briercrest Avenue","City":"Lakewood","Zip":"90713-2512","State":"CA","Latitude":33.837896,"Longitude":-118.12322},{"NUMTSTTAKR":602,"AVGSCR":1446.0,"School":"Millikan High","Street":"2800 Snowden Avenue","City":"Long Beach","Zip":"90815-1436","State":"CA","Latitude":33.807317,"Longitude":-118.11173},{"NUMTSTTAKR":858,"AVGSCR":1474.0,"School":"Polytechnic High","Street":"1600 Atlantic Avenue","City":"Long Beach","Zip":"90813-2017","State":"CA","Latitude":33.787162,"Longitude":-118.18499},{"NUMTSTTAKR":613,"AVGSCR":1494.0,"School":"Wilson High","Street":"4400 East Tenth Street","City":"Long Beach","Zip":"90804-4310","State":"CA","Latitude":33.778933,"Longitude":-118.14153},{"NUMTSTTAKR":238,"AVGSCR":1746.0,"School":"California Academy of Mathematics and Science","Street":"1000 East Victoria Street, Building SAC3 rm3117","City":"Carson","Zip":"90747-0001","State":"CA","Latitude":33.867124,"Longitude":-118.25869},{"NUMTSTTAKR":1,"AVGSCR":null,"School":"Educational Partnership High","Street":"1794 Cedar Avenue","City":"Long Beach","Zip":"90813-1770","State":"CA","Latitude":33.835403,"Longitude":-118.1849},{"NUMTSTTAKR":279,"AVGSCR":1232.0,"School":"Cabrillo High","Street":"2001 Santa Fe Avenue","City":"Long Beach","Zip":"90810-4068","State":"CA","Latitude":33.793512,"Longitude":-118.21556},{"NUMTSTTAKR":87,"AVGSCR":1447.0,"School":"Renaissance High School for the Arts","Street":"235 East Eighth Street","City":"Long Beach","Zip":"90813-4311","State":"CA","Latitude":33.776587,"Longitude":-118.19022},{"NUMTSTTAKR":89,"AVGSCR":1545.0,"School":"High Tech LA","Street":"17111 Victory Boulevard","City":"Van Nuys","Zip":"91406-5455","State":"CA","Latitude":34.18666,"Longitude":-118.50517},{"NUMTSTTAKR":100,"AVGSCR":1311.0,"School":"Wallis Annenberg High","Street":"4000 South Main Street","City":"Los Angeles","Zip":"90037-1022","State":"CA","Latitude":34.01043,"Longitude":-118.27396},{"NUMTSTTAKR":4,"AVGSCR":null,"School":"North Valley Military Institute College Preparatory Academy","Street":"16651-A Rinaldi Street","City":"Granada Hills","Zip":"91344-3632","State":"CA","Latitude":34.280671,"Longitude":-118.49519},{"NUMTSTTAKR":106,"AVGSCR":1221.0,"School":"Central City Value","Street":"221 North Westmoreland Avenue","City":"Los Angeles","Zip":"90004-4815","State":"CA","Latitude":34.074798,"Longitude":-118.28853},{"NUMTSTTAKR":0,"AVGSCR":null,"School":"View Park Preparatory Accelerated High","Street":"5701 South Crenshaw Boulevard","City":"Los Angeles","Zip":"90043-2409","State":"CA","Latitude":33.989718,"Longitude":-118.33104},{"NUMTSTTAKR":64,"AVGSCR":1130.0,"School":"Crenshaw Arts-Technology Charter High","Street":"4120 11th Avenue","City":"Los Angeles","Zip":"90008-3712","State":"CA","Latitude":33.976628,"Longitude":-118.32583},{"NUMTSTTAKR":201,"AVGSCR":1217.0,"School":"Oscar De La Hoya Animo Charter High","Street":"1114 South Lorena Street","City":"Los Angeles","Zip":"90023-2915","State":"CA","Latitude":34.023285,"Longitude":-118.20339},{"NUMTSTTAKR":56,"AVGSCR":1480.0,"School":"Renaissance Arts Academy","Street":"1800 Colorado Boulevard","City":"Los Angeles","Zip":"90041-1340","State":"CA","Latitude":34.139001,"Longitude":-118.20657},{"NUMTSTTAKR":165,"AVGSCR":1162.0,"School":"Animo South Los Angeles Charter","Street":"11130 Western Avenue","City":"Los Angeles","Zip":"90047-4845","State":"CA","Latitude":33.933479,"Longitude":-118.30828},{"NUMTSTTAKR":89,"AVGSCR":1231.0,"School":"New Designs Charter","Street":"2303 South Figueroa Way","City":"Los Angeles","Zip":"90007-2504","State":"CA","Latitude":34.030848,"Longitude":-118.27521},{"NUMTSTTAKR":1,"AVGSCR":null,"School":"Richard A. Alonzo Community Day","Street":"5755 Fountain Avenue","City":"Los Angeles","Zip":"90028-8531","State":"CA","Latitude":34.094767,"Longitude":-118.31505},{"NUMTSTTAKR":111,"AVGSCR":1346.0,"School":"Middle College High","Street":"1600 West Imperial Hwy, Building 16","City":"Los Angeles","Zip":"90047-4810","State":"CA","Latitude":33.927371,"Longitude":-118.30896},{"NUMTSTTAKR":113,"AVGSCR":1542.0,"School":"Harbor Teacher Preparation Academy","Street":"1111 Figueroa Place","City":"Wilmington","Zip":"90744-2311","State":"CA","Latitude":33.783301,"Longitude":-118.28427},{"NUMTSTTAKR":42,"AVGSCR":1427.0,"School":"Ivy Academia","Street":"5461 Winnetka Avenue","City":"Winnetka","Zip":"91364","State":"CA","Latitude":34.180194,"Longitude":-118.5905},{"NUMTSTTAKR":44,"AVGSCR":1320.0,"School":"Camino Nuevo Charter High","Street":"1215 W. Miramar Street","City":"Los Angeles","Zip":"90026-6115","State":"CA","Latitude":34.076664,"Longitude":-118.28443},{"NUMTSTTAKR":161,"AVGSCR":1259.0,"School":"Animo Venice Charter High","Street":"820 Broadway Street","City":"Venice","Zip":"90291-3408","State":"CA","Latitude":33.997102,"Longitude":-118.46359},{"NUMTSTTAKR":154,"AVGSCR":1205.0,"School":"Animo Pat Brown","Street":"8255 Beach Street","City":"Los Angeles","Zip":"90001-4014","State":"CA","Latitude":33.963093,"Longitude":-118.24259},{"NUMTSTTAKR":177,"AVGSCR":1287.0,"School":"Alliance Gertz-Ressler Richard Merkin 6-12 Complex","Street":"2023 South Union Avenue","City":"Los Angeles","Zip":"90007-1326","State":"CA","Latitude":34.036487,"Longitude":-118.28304},{"NUMTSTTAKR":182,"AVGSCR":1339.0,"School":"Orthopaedic Hospital","Street":"300 West 23rd Street","City":"Los Angeles","Zip":"90007-2612","State":"CA","Latitude":34.029057,"Longitude":-118.27061},{"NUMTSTTAKR":154,"AVGSCR":1342.0,"School":"Northridge Academy High","Street":"9601 Zelzah Avenue","City":"Northridge","Zip":"91325-2010","State":"CA","Latitude":34.244989,"Longitude":-118.5233},{"NUMTSTTAKR":54,"AVGSCR":1339.0,"School":"International Studies Learning Center at Legacy High School Complex","Street":"5225 Tweedy Boulevard","City":"South Gate","Zip":"90280-5332","State":"CA","Latitude":33.942413,"Longitude":-118.22535},{"NUMTSTTAKR":164,"AVGSCR":1474.0,"School":"Port of Los Angeles High","Street":"250 West Fifth Street","City":"San Pedro","Zip":"90731-3304","State":"CA","Latitude":33.740103,"Longitude":-118.28186},{"NUMTSTTAKR":232,"AVGSCR":1460.0,"School":"CHAMPS - Charter HS of Arts-Multimedia & Performing","Street":"6842 Van Nuys Boulevard","City":"Van Nuys","Zip":"91405-3984","State":"CA","Latitude":34.197331,"Longitude":-118.44751},{"NUMTSTTAKR":193,"AVGSCR":1210.0,"School":"Alliance Judy Ivie Burton Technology Academy High","Street":"10101 South Broadway","City":"Los Angeles","Zip":"90003-4534","State":"CA","Latitude":33.947697,"Longitude":-118.27423},{"NUMTSTTAKR":0,"AVGSCR":null,"School":"Larchmont Charter","Street":"1265 North Fairfax Avenue","City":"West Hollywood","Zip":"90046-5205","State":"CA","Latitude":34.085842,"Longitude":-118.32486},{"NUMTSTTAKR":257,"AVGSCR":1198.0,"School":"Alliance Collins Family College-Ready High","Street":"2071 Saturn Avenue","City":"Huntington Park","Zip":"90255-3635","State":"CA","Latitude":33.977411,"Longitude":-118.23416},{"NUMTSTTAKR":0,"AVGSCR":null,"School":"Pacific Boulevard","Street":"2660 East 57th Street","City":"Huntington Park","Zip":"90255-2545","State":"CA","Latitude":33.991076,"Longitude":-118.22355},{"NUMTSTTAKR":174,"AVGSCR":1169.0,"School":"Santee Education Complex","Street":"1921 South Maple Avenue","City":"Los Angeles","Zip":"90011-1036","State":"CA","Latitude":34.029014,"Longitude":-118.26278},{"NUMTSTTAKR":315,"AVGSCR":1331.0,"School":"South East High","Street":"2720 Tweedy Boulevard","City":"South Gate","Zip":"90280-5539","State":"CA","Latitude":33.94609,"Longitude":-118.2233},{"NUMTSTTAKR":114,"AVGSCR":1320.0,"School":"Maywood Academy High","Street":"6125 Pine Avenue","City":"Maywood","Zip":"90270-3110","State":"CA","Latitude":33.983175,"Longitude":-118.18904},{"NUMTSTTAKR":1,"AVGSCR":null,"School":"Cal Burke High","Street":"14630 Lanark Street","City":"Panorama City","Zip":"91402-4917","State":"CA","Latitude":34.217431,"Longitude":-118.45264},{"NUMTSTTAKR":80,"AVGSCR":1240.0,"School":"PUC CA Academy for Liberal Studies Early College High","Street":"7350 North Figueroa Street","City":"Los Angeles","Zip":"90041-2547","State":"CA","Latitude":34.048682,"Longitude":-118.25751},{"NUMTSTTAKR":133,"AVGSCR":1250.0,"School":"PUC Community Charter Early College High","Street":"11500 Eldridge Avenue","City":"Lakeview Terrace","Zip":"91342","State":"CA","Latitude":34.201755,"Longitude":-118.50248},{"NUMTSTTAKR":30,"AVGSCR":1161.0,"School":"Los Angeles Academy of Arts & Enterprise Charter","Street":"600 South La Fayette Park Place, 1st Floor","City":"Los Angeles","Zip":"90057-3243","State":"CA","Latitude":34.062379,"Longitude":-118.28213},{"NUMTSTTAKR":12,"AVGSCR":1110.0,"School":"New Village Girls Academy","Street":"147 North Occidental Boulevard","City":"Los Angeles","Zip":"90026-4601","State":"CA","Latitude":34.07131,"Longitude":-118.27907},{"NUMTSTTAKR":257,"AVGSCR":1154.0,"School":"Alliance Patti And Peter Neuwirth Leadership Academy","Street":"4610 South Main Street","City":"Los Angeles","Zip":"90037-2736","State":"CA","Latitude":34.010829,"Longitude":-118.31027},{"NUMTSTTAKR":159,"AVGSCR":1279.0,"School":"Alliance Dr. Olga Mohan High","Street":"644 West 17th Street","City":"Los Angeles","Zip":"90015-3400","State":"CA","Latitude":34.036608,"Longitude":-118.27124},{"NUMTSTTAKR":103,"AVGSCR":1148.0,"School":"Animo Ralph Bunche High","Street":"1655 East 27th Street, Suite B","City":"Los Angeles","Zip":"90011-2202","State":"CA","Latitude":34.012799,"Longitude":-118.24435},{"NUMTSTTAKR":133,"AVGSCR":1166.0,"School":"Animo Jackie Robinson High","Street":"3500 South Hill Street","City":"Los Angeles","Zip":"90007-4333","State":"CA","Latitude":34.018406,"Longitude":-118.27564},{"NUMTSTTAKR":118,"AVGSCR":1079.0,"School":"Animo Watts College Preparatory Academy","Street":"12628 Avalon Boulevard","City":"Los Angeles","Zip":"90061-2728","State":"CA","Latitude":33.917956,"Longitude":-118.26486},{"NUMTSTTAKR":171,"AVGSCR":1206.0,"School":"Alliance Ouchi-O'Donovan 6-12 Complex","Street":"5356 South Fifth Avenue","City":"Los Angeles","Zip":"90043-2622","State":"CA","Latitude":33.993479,"Longitude":-118.32249},{"NUMTSTTAKR":208,"AVGSCR":1280.0,"School":"Alliance Marc & Eva Stern Math and Science","Street":"5151 State University Drive, Lot 2","City":"Los Angeles","Zip":"90032-4226","State":"CA","Latitude":34.062345,"Longitude":-118.17158},{"NUMTSTTAKR":61,"AVGSCR":1201.0,"School":"School of Business and Tourism at Contreras Learning Complex","Street":"322 Lucas Avenue","City":"Los Angeles","Zip":"90017-1406","State":"CA","Latitude":34.058075,"Longitude":-118.26173},{"NUMTSTTAKR":89,"AVGSCR":1235.0,"School":"East Valley Senior High","Street":"5525 Vineland Avenue","City":"North Hollywood","Zip":"91601-2730","State":"CA","Latitude":34.170558,"Longitude":-118.37033},{"NUMTSTTAKR":248,"AVGSCR":1217.0,"School":"Arleta High","Street":"14200 Van Nuys Boulevard","City":"Arleta","Zip":"91331-5103","State":"CA","Latitude":34.250982,"Longitude":-118.44275},{"NUMTSTTAKR":105,"AVGSCR":1336.0,"School":"Panorama High","Street":"8015 Van Nuys Boulevard","City":"Panorama City","Zip":"91402-6009","State":"CA","Latitude":34.216526,"Longitude":-118.4488},{"NUMTSTTAKR":144,"AVGSCR":1312.0,"School":"Bright Star Secondary Charter Academy","Street":"5431 West 98th Street","City":"Los Angeles","Zip":"90045-5715","State":"CA","Latitude":33.999768,"Longitude":-118.27471},{"NUMTSTTAKR":71,"AVGSCR":1156.0,"School":"Frederick Douglass Academy High","Street":"3200 West Adams Boulevard","City":"Los Angeles","Zip":"90018-1832","State":"CA","Latitude":34.021975,"Longitude":-118.37132},{"NUMTSTTAKR":37,"AVGSCR":1147.0,"School":"Student Empowerment Academy","Street":"1319 East 41st Street","City":"Los Angeles","Zip":"90011-3301","State":"CA","Latitude":34.009213,"Longitude":-118.25155},{"NUMTSTTAKR":71,"AVGSCR":1159.0,"School":"Contreras Learning Center-Los Angeles School of Global Studies","Street":"322 Lucas Avenue","City":"Los Angeles","Zip":"90017-1406","State":"CA","Latitude":34.058075,"Longitude":-118.26173},{"NUMTSTTAKR":189,"AVGSCR":1216.0,"School":"West Adams Preparatory High","Street":"1500 West Washington Boulevard","City":"Los Angeles","Zip":"90007-1257","State":"CA","Latitude":34.039617,"Longitude":-118.28968},{"NUMTSTTAKR":0,"AVGSCR":null,"School":"Magnolia Science Academy 3","Street":"1254 East Helmick Street","City":"Carson","Zip":"90746-3164","State":"CA","Latitude":33.85163,"Longitude":-118.24958},{"NUMTSTTAKR":12,"AVGSCR":1442.0,"School":"Magnolia Science Academy 2","Street":"17125 Victory Boulevard","City":"Van Nuys","Zip":"91406-5455","State":"CA","Latitude":34.190667,"Longitude":-118.53441},{"NUMTSTTAKR":75,"AVGSCR":1120.0,"School":"Discovery Charter Preparatory No. 2","Street":"12550 Van Nuys Boulevard","City":"Pacoima","Zip":"91331-1354","State":"CA","Latitude":34.276687,"Longitude":-118.40569},{"NUMTSTTAKR":80,"AVGSCR":1156.0,"School":"Alliance Media Arts and Entertainment Design High","Street":"113 S. Rowan Avenue","City":"Los Angeles","Zip":"90063","State":"CA","Latitude":34.020227,"Longitude":-118.15851},{"NUMTSTTAKR":178,"AVGSCR":1245.0,"School":"Edward R. Roybal Learning Center","Street":"1200 West Colton Street","City":"Los Angeles","Zip":"90026-5816","State":"CA","Latitude":34.062003,"Longitude":-118.25455},{"NUMTSTTAKR":64,"AVGSCR":1179.0,"School":"Helen Bernstein High","Street":"1309 North Wilton Place","City":"Hollywood","Zip":"90028-8526","State":"CA","Latitude":34.09506,"Longitude":-118.31392},{"NUMTSTTAKR":48,"AVGSCR":1127.0,"School":"APEX Academy","Street":"1309 North Wilton Place, 3rd Floor","City":"Los Angeles","Zip":"90028-8526","State":"CA","Latitude":34.09506,"Longitude":-118.31392},{"NUMTSTTAKR":41,"AVGSCR":1119.0,"School":"Alliance Health Services Academy High","Street":"10616 South Western Avenue","City":"Los Angeles","Zip":"90047-4449","State":"CA","Latitude":33.922678,"Longitude":-118.30897},{"NUMTSTTAKR":65,"AVGSCR":1381.0,"School":"Alliance Environmental Science and Technology High","Street":"2930 Fletcher Drive","City":"Los Angeles","Zip":"90065-1407","State":"CA","Latitude":34.113854,"Longitude":-118.24694},{"NUMTSTTAKR":19,"AVGSCR":1225.0,"School":"Magnolia Science Academy 4","Street":"11330 West Graham Place, B-9","City":"Los Angeles","Zip":"90064","State":"CA","Latitude":34.029835,"Longitude":-118.4356},{"NUMTSTTAKR":0,"AVGSCR":null,"School":"Magnolia Science Academy 5","Street":"18230 Kittridge Street","City":"Reseda","Zip":"91335-6121","State":"CA","Latitude":34.099569,"Longitude":-118.31359},{"NUMTSTTAKR":59,"AVGSCR":1209.0,"School":"Contreras Learning Center-Academic Leadership Community","Street":"322 Lucas Avenue","City":"Los Angeles","Zip":"90017-1406","State":"CA","Latitude":34.058075,"Longitude":-118.26173},{"NUMTSTTAKR":50,"AVGSCR":1071.0,"School":"Civitas School of Leadership","Street":"1200 West Colton Street","City":"Los Angeles","Zip":"90026","State":"CA","Latitude":34.062003,"Longitude":-118.25455},{"NUMTSTTAKR":67,"AVGSCR":1235.0,"School":"RFK Community Schools-Los Angeles High School of the Arts","Street":"701 South Catalina Street","City":"Los Angeles","Zip":"90005-1943","State":"CA","Latitude":34.061767,"Longitude":-118.26293},{"NUMTSTTAKR":37,"AVGSCR":1093.0,"School":"Belmont SH-LA Teacher Preparatory Academy","Street":"1575 West Second Street","City":"Los Angeles","Zip":"90026-5701","State":"CA","Latitude":34.061767,"Longitude":-118.26293},{"NUMTSTTAKR":74,"AVGSCR":1238.0,"School":"RFK Community Schools- for the Visual Arts and Humanities","Street":"701 South Catalina Street","City":"Los Angeles","Zip":"90005-1943","State":"CA","Latitude":34.062003,"Longitude":-118.25455},{"NUMTSTTAKR":62,"AVGSCR":1184.0,"School":"New Millennium Secondary","Street":"1301 WeStreet 182nd Street, Suite B","City":"Gardena","Zip":"90248-3322","State":"CA","Latitude":33.844149,"Longitude":-118.26052},{"NUMTSTTAKR":379,"AVGSCR":1120.0,"School":"Alain Leroy Locke College Prep Academy","Street":"325 East 111th Street","City":"Los Angeles","Zip":"90061-3003","State":"CA","Latitude":33.934839,"Longitude":-118.26894},{"NUMTSTTAKR":37,"AVGSCR":1225.0,"School":"Sun Valley High","Street":"9171 Telfair Avenue","City":"Sun Valley","Zip":"91352-1844","State":"CA","Latitude":34.236142,"Longitude":-118.39657},{"NUMTSTTAKR":42,"AVGSCR":1229.0,"School":"RFK Community Schools-New Open World Academy K-12","Street":"3201 West Eighth Street","City":"Los Angeles","Zip":"90010-2171","State":"CA","Latitude":34.057751,"Longitude":-118.29765},{"NUMTSTTAKR":55,"AVGSCR":1300.0,"School":"RFK Community Schools-UCLA Community K-12","Street":"700 South Mariposa Avenue","City":"Los Angeles","Zip":"90005-2001","State":"CA","Latitude":34.061734,"Longitude":-118.29795},